moeCode,schoolName,campusName,campusAddress,province,city,district,lat,lng,undergraduateScope,freshmanOnly,mainCampusType,nearestMetroStation,metroDistanceKm,sourceTitle,sourceUrl,sourceDate,confidence,notes
3622000335,长春师范高等专科学校,主校区,吉林省长春市农安经济开发区（合隆镇）长隆大街2015-1号,吉林,长春,宽城区,44.076612,125.172419,unknown,unknown,,,,Naptie cn-university-geocoder + DaoSword China-Education-Data + ZsTs119/pg7go Baidu POI 数据集,https://github.com/Naptie/cn-university-geocoder,2026-04-21,high,百度 POI 精确匹配，坐标偏差约 1.40 km。
3632000466,盐城幼儿师范高等专科学校,北校,海洋路28号,江苏,盐城,盐都区,33.317468,120.169611,unknown,unknown,,,,Naptie cn-university-geocoder + ZsTs119/pg7go Baidu POI 数据集,https://github.com/Naptie/cn-university-geocoder,2026-04-21,medium,百度 POI 近似匹配，坐标偏差约 0.77 km。
3632000466,盐城幼儿师范高等专科学校,南校,江苏省盐城市高职园区学海路28号,江苏,盐城,盐都区,33.30774,120.176161,unknown,unknown,,,,Naptie cn-university-geocoder + ZsTs119/pg7go Baidu POI 数据集,https://github.com/Naptie/cn-university-geocoder,2026-04-21,medium,百度 POI 近似匹配，坐标偏差约 0.89 km。
3632000583,苏州幼儿师范高等专科学校,主校区,江苏省苏州市相城区华元路2号,江苏,苏州,相城区,31.383668,120.665291,unknown,unknown,,,,Naptie cn-university-geocoder + DaoSword China-Education-Data + ZsTs119/pg7go Baidu POI 数据集,https://github.com/Naptie/cn-university-geocoder,2026-04-21,high,百度 POI 精确匹配，坐标偏差约 1.11 km。
3636000312,上饶幼儿师范高等专科学校,主校区,江西省上饶市信州区志敏大道397号,江西,上饶,信州区,28.421177,117.97686,unknown,unknown,,,,Naptie cn-university-geocoder + DaoSword China-Education-Data + ZsTs119/pg7go Baidu POI 数据集,https://github.com/Naptie/cn-university-geocoder,2026-04-21,high,百度 POI 精确匹配，坐标偏差约 1.17 km。
3636000519,抚州幼儿师范高等专科学校,主校区,江西省抚州市王安石大道99号,江西,抚州,临川区,27.951771,116.407348,unknown,unknown,,,,Naptie cn-university-geocoder + DaoSword China-Education-Data + ZsTs119/pg7go Baidu POI 数据集,https://github.com/Naptie/cn-university-geocoder,2026-04-21,high,百度 POI 精确匹配，坐标偏差约 1.18 km。
3643000496,湘中幼儿师范高等专科学校,主校区,湖南省邵阳市大祥区学院南路,湖南,邵阳,大祥区,27.164663,111.411818,unknown,unknown,,,,Naptie cn-university-geocoder + DaoSword China-Education-Data + ZsTs119/pg7go Baidu POI 数据集,https://github.com/Naptie/cn-university-geocoder,2026-04-21,high,百度 POI 精确匹配，坐标偏差约 1.02 km。
4111010001,北京大学,主校区,北京市海淀区颐和园路5号,北京,北京,海淀区,39.992591,116.3107,unknown,unknown,,,,Naptie cn-university-geocoder + DaoSword China-Education-Data + ZsTs119/pg7go Baidu POI 数据集,https://github.com/Naptie/cn-university-geocoder,2026-04-21,high,百度 POI 精确匹配，坐标偏差约 0.87 km。
4111010002,中国人民大学,主校区,北京市海淀区中关村大街59号,北京,北京,海淀区,39.969316,116.30713,unknown,unknown,,,,Naptie cn-university-geocoder + DaoSword China-Education-Data + ZsTs119/pg7go Baidu POI 数据集,https://github.com/Naptie/cn-university-geocoder,2026-04-21,high,百度 POI 精确匹配，坐标偏差约 1.34 km。
4111010003,清华大学,主校区,北京市海淀区清华大学,北京,北京,海淀区,40.003396449752614,116.31978243383787,unknown,unknown,,,,Naptie cn-university-geocoder + DaoSword China-Education-Data + ZsTs119/pg7go Baidu POI 数据集,https://github.com/Naptie/cn-university-geocoder,2026-04-21,high,百度 POI 精确匹配，坐标偏差约 1.35 km。
4111010004,北京交通大学,主校区,北京市海淀区西直门外上园村3号,北京,北京,海淀区,39.949388,116.332095,unknown,unknown,,,,Naptie cn-university-geocoder + DaoSword China-Education-Data,https://github.com/Naptie/cn-university-geocoder,2026-04-21,medium,辅源：https://github.com/jtchen2k/hcu、https://daxue.cgsop.com/ 可用于后续人工校验校区沿革与本科去向。
4111010005,北京工业大学,平乐园校区,北京市朝阳区平乐园100号,北京,北京,朝阳区,39.873377,116.47861,unknown,unknown,,,,Naptie cn-university-geocoder + DaoSword China-Education-Data,https://github.com/Naptie/cn-university-geocoder,2026-04-21,high,校区地址与 DaoSword 宽表中的标注校区名一致。
4111010005,北京工业大学,通州校区,北京市通州区潞苑南大街89号,北京,北京,通州区,39.92954,116.669056,unknown,unknown,,,,Naptie cn-university-geocoder + DaoSword China-Education-Data + ZsTs119/pg7go Baidu POI 数据集,https://github.com/Naptie/cn-university-geocoder,2026-04-21,high,校区地址与 DaoSword 宽表中的标注校区名一致。 百度 POI 近似匹配，坐标偏差约 0.84 km。
4111010006,北京航空航天大学,沙河校区,北京市昌平区沙河高教园区,北京,北京,昌平区,40.153592,116.27045,unknown,unknown,,,,Naptie cn-university-geocoder + DaoSword China-Education-Data,https://github.com/Naptie/cn-university-geocoder,2026-04-21,high,校区地址与 DaoSword 宽表中的标注校区名一致。
4111010006,北京航空航天大学,学院路校区,北京市海淀区学院路37号,北京,北京,海淀区,39.980626,116.350943,unknown,unknown,,,,Naptie cn-university-geocoder + DaoSword China-Education-Data,https://github.com/Naptie/cn-university-geocoder,2026-04-21,high,校区地址与 DaoSword 宽表中的标注校区名一致。
4111010007,北京理工大学,良乡校区,北京市房山区良乡东路,北京,北京,房山区,39.731782,116.17213,unknown,unknown,,,,Naptie cn-university-geocoder + DaoSword China-Education-Data + ZsTs119/pg7go Baidu POI 数据集,https://github.com/Naptie/cn-university-geocoder,2026-04-21,high,百度 POI 近似匹配，坐标偏差约 0.80 km。
4111010007,北京理工大学,珠海,广东省珠海市唐家湾金凤路6号,广东,珠海,香洲区,22.36391,113.538301,unknown,unknown,,,,Naptie cn-university-geocoder + DaoSword China-Education-Data + ZsTs119/pg7go Baidu POI 数据集,https://github.com/Naptie/cn-university-geocoder,2026-04-21,high,百度 POI 近似匹配，坐标偏差约 1.20 km。
4111010008,北京科技大学,主校区,北京市海淀区学院路30号,北京,北京,海淀区,39.986417,116.354227,unknown,unknown,,,,Naptie cn-university-geocoder + DaoSword China-Education-Data + ZsTs119/pg7go Baidu POI 数据集,https://github.com/Naptie/cn-university-geocoder,2026-04-21,high,百度 POI 精确匹配，坐标偏差约 1.47 km。
4111010009,北方工业大学,主校区,北京市石景山区晋元庄路5号,北京,北京,石景山区,39.926784,116.202185,unknown,unknown,,,,Naptie cn-university-geocoder + DaoSword China-Education-Data + ZsTs119/pg7go Baidu POI 数据集,https://github.com/Naptie/cn-university-geocoder,2026-04-21,high,百度 POI 精确匹配，坐标偏差约 1.33 km。
4111010010,北京化工大学,主校区,北京市朝阳区北三环东路15号,北京,北京,朝阳区,39.970409,116.414976,unknown,unknown,,,,Naptie cn-university-geocoder + DaoSword China-Education-Data,https://github.com/Naptie/cn-university-geocoder,2026-04-21,medium,辅源：https://github.com/jtchen2k/hcu、https://daxue.cgsop.com/ 可用于后续人工校验校区沿革与本科去向。
4111010011,北京工商大学,主校区,北京市海淀区阜成路33号,北京,北京,海淀区,39.718435,116.16125,unknown,unknown,,,,Naptie cn-university-geocoder + DaoSword China-Education-Data,https://github.com/Naptie/cn-university-geocoder,2026-04-21,medium,辅源：https://github.com/jtchen2k/hcu、https://daxue.cgsop.com/ 可用于后续人工校验校区沿革与本科去向。
4111010012,北京服装学院,芍药居校区,北京市朝阳区芍药居甲1号,北京,北京,朝阳区,39.979923,116.435117,unknown,unknown,,,,Naptie cn-university-geocoder + DaoSword China-Education-Data,https://github.com/Naptie/cn-university-geocoder,2026-04-21,high,校区地址与 DaoSword 宽表中的标注校区名一致。
4111010012,北京服装学院,樱花园校区,北京市朝阳区樱花园东街甲2号,北京,北京,朝阳区,39.972752,116.431091,unknown,unknown,,,,Naptie cn-university-geocoder + DaoSword China-Education-Data,https://github.com/Naptie/cn-university-geocoder,2026-04-21,high,校区地址与 DaoSword 宽表中的标注校区名一致。
4111010013,北京邮电大学,世纪学院,北京市延庆区康庄镇西官路1号,北京,北京,延庆区,40.37141,115.893149,unknown,unknown,,,,Naptie cn-university-geocoder + DaoSword China-Education-Data + ZsTs119/pg7go Baidu POI 数据集,https://github.com/Naptie/cn-university-geocoder,2026-04-21,high,百度 POI 近似匹配，坐标偏差约 0.89 km。
4111010013,北京邮电大学,主校区,北京市西土城路10号,北京,北京,,40.156095,116.282835,unknown,unknown,,,,Naptie cn-university-geocoder + DaoSword China-Education-Data,https://github.com/Naptie/cn-university-geocoder,2026-04-21,medium,辅源：https://github.com/jtchen2k/hcu、https://daxue.cgsop.com/ 可用于后续人工校验校区沿革与本科去向。
4111010015,北京印刷学院,主校区,北京市大兴区兴华大街（二段）1号,北京,北京,大兴区,39.758117,116.307047,unknown,unknown,,,,Naptie cn-university-geocoder + DaoSword China-Education-Data + ZsTs119/pg7go Baidu POI 数据集,https://github.com/Naptie/cn-university-geocoder,2026-04-21,high,百度 POI 精确匹配，坐标偏差约 2.60 km。
4111010016,北京建筑大学,大兴校区,北京市大兴区永源路15号,北京,北京,大兴区,39.746885,116.287907,unknown,unknown,,,,Naptie cn-university-geocoder + DaoSword China-Education-Data + ZsTs119/pg7go Baidu POI 数据集,https://github.com/Naptie/cn-university-geocoder,2026-04-21,high,校区地址与 DaoSword 宽表中的标注校区名一致。 百度 POI 近似匹配，坐标偏差约 0.97 km。
4111010016,北京建筑大学,西城校区,北京市西城区展览馆路1号,北京,北京,西城区,39.935213,116.341965,unknown,unknown,,,,Naptie cn-university-geocoder + DaoSword China-Education-Data,https://github.com/Naptie/cn-university-geocoder,2026-04-21,high,校区地址与 DaoSword 宽表中的标注校区名一致。
4111010017,北京石油化工学院,主校区,北京市大兴区黄村镇清源北路19号,北京,北京,大兴区,39.755939,116.307055,unknown,unknown,,,,Naptie cn-university-geocoder + DaoSword China-Education-Data + ZsTs119/pg7go Baidu POI 数据集,https://github.com/Naptie/cn-university-geocoder,2026-04-21,high,百度 POI 精确匹配，坐标偏差约 2.17 km。
4111010018,北京电子科技学院,主校区,北京市丰台区富丰路7号,北京,北京,丰台区,39.836349,116.273684,unknown,unknown,,,,Naptie cn-university-geocoder + DaoSword China-Education-Data + ZsTs119/pg7go Baidu POI 数据集,https://github.com/Naptie/cn-university-geocoder,2026-04-21,high,百度 POI 精确匹配，坐标偏差约 1.35 km。
4111010019,中国农业大学,烟台校区,山东省烟台市莱山区滨海中路2006号,山东,烟台,莱山区,37.434419,121.521506,unknown,unknown,,,,Naptie cn-university-geocoder + DaoSword China-Education-Data + ZsTs119/pg7go Baidu POI 数据集,https://github.com/Naptie/cn-university-geocoder,2026-04-21,high,百度 POI 近似匹配，坐标偏差约 0.88 km。
4111010019,中国农业大学,主校区,北京市海淀区清华东路17号,北京,北京,海淀区,40.003022,116.351358,unknown,unknown,,,,Naptie cn-university-geocoder + DaoSword China-Education-Data,https://github.com/Naptie/cn-university-geocoder,2026-04-21,medium,辅源：https://github.com/jtchen2k/hcu、https://daxue.cgsop.com/ 可用于后续人工校验校区沿革与本科去向。
4111010020,北京农学院,主校区,北京市昌平区回龙观镇北农路7号,北京,北京,昌平区,40.093661,116.304449,unknown,unknown,,,,Naptie cn-university-geocoder + DaoSword China-Education-Data,https://github.com/Naptie/cn-university-geocoder,2026-04-21,medium,辅源：https://github.com/jtchen2k/hcu、https://daxue.cgsop.com/ 可用于后续人工校验校区沿革与本科去向。
4111010022,北京林业大学,主校区,北京市海淀区清华东路35号,北京,北京,海淀区,40.063491,116.098806,unknown,unknown,,,,Naptie cn-university-geocoder + DaoSword China-Education-Data,https://github.com/Naptie/cn-university-geocoder,2026-04-21,medium,辅源：https://github.com/jtchen2k/hcu、https://daxue.cgsop.com/ 可用于后续人工校验校区沿革与本科去向。
4111010023,北京协和医学院,主校区,北京市东城区东单三条9号,北京,北京,东城区,39.909691,116.408594,unknown,unknown,,,,Naptie cn-university-geocoder + DaoSword China-Education-Data + ZsTs119/pg7go Baidu POI 数据集,https://github.com/Naptie/cn-university-geocoder,2026-04-21,high,百度 POI 精确匹配，坐标偏差约 1.37 km。
4111010025,首都医科大学,主校区,北京市丰台区右安门外西头条10号,北京,北京,丰台区,39.842146,116.317742,unknown,unknown,,,,Naptie cn-university-geocoder + DaoSword China-Education-Data + ZsTs119/pg7go Baidu POI 数据集,https://github.com/Naptie/cn-university-geocoder,2026-04-21,high,百度 POI 精确匹配，坐标偏差约 4.80 km。
4111010026,北京中医药大学,主校区,北京市朝阳区北三环东路11号,北京,北京,朝阳区,39.969855,116.421747,unknown,unknown,,,,Naptie cn-university-geocoder + DaoSword China-Education-Data,https://github.com/Naptie/cn-university-geocoder,2026-04-21,medium,辅源：https://github.com/jtchen2k/hcu、https://daxue.cgsop.com/ 可用于后续人工校验校区沿革与本科去向。
4111010027,北京师范大学,北太平庄校区,北京市新街口外大街19号,北京,北京,,39.957588,116.356728,unknown,unknown,,,,Naptie cn-university-geocoder + DaoSword China-Education-Data,https://github.com/Naptie/cn-university-geocoder,2026-04-21,medium,暂仅保留单校址占位，后续需补官方校区页。
4111010028,首都师范大学,主校区,北京市海淀区西三环北路105号,北京,北京,海淀区,39.711346,116.173088,unknown,unknown,,,,Naptie cn-university-geocoder + DaoSword China-Education-Data,https://github.com/Naptie/cn-university-geocoder,2026-04-21,medium,辅源：https://github.com/jtchen2k/hcu、https://daxue.cgsop.com/ 可用于后续人工校验校区沿革与本科去向。
4111010029,首都体育学院,主校区,北京市海淀区北三环西路11号,北京,北京,海淀区,40.078008,116.105977,unknown,unknown,,,,Naptie cn-university-geocoder + DaoSword China-Education-Data,https://github.com/Naptie/cn-university-geocoder,2026-04-21,medium,辅源：https://github.com/jtchen2k/hcu、https://daxue.cgsop.com/ 可用于后续人工校验校区沿革与本科去向。
4111010030,北京外国语大学,主校区,北京市海淀区西三环北路2号,北京,北京,海淀区,39.953862,116.300353,unknown,unknown,,,,Naptie cn-university-geocoder + DaoSword China-Education-Data,https://github.com/Naptie/cn-university-geocoder,2026-04-21,medium,辅源：https://github.com/jtchen2k/hcu、https://daxue.cgsop.com/ 可用于后续人工校验校区沿革与本科去向。
4111010031,北京第二外国语学院,主校区,北京市朝阳区定福庄南里1号,北京,北京,朝阳区,39.911696,116.557721,unknown,unknown,,,,Naptie cn-university-geocoder + DaoSword China-Education-Data + ZsTs119/pg7go Baidu POI 数据集,https://github.com/Naptie/cn-university-geocoder,2026-04-21,high,百度 POI 精确匹配，坐标偏差约 1.30 km。
4111010032,北京语言大学,主校区,北京市海淀区学院路15号,北京,北京,海淀区,39.993616,116.340116,unknown,unknown,,,,Naptie cn-university-geocoder + DaoSword China-Education-Data,https://github.com/Naptie/cn-university-geocoder,2026-04-21,medium,辅源：https://github.com/jtchen2k/hcu、https://daxue.cgsop.com/ 可用于后续人工校验校区沿革与本科去向。
4111010033,中国传媒大学,主校区,北京市朝阳区定福庄东街一号,北京,北京,朝阳区,39.912262,116.552299,unknown,unknown,,,,Naptie cn-university-geocoder + DaoSword China-Education-Data + ZsTs119/pg7go Baidu POI 数据集,https://github.com/Naptie/cn-university-geocoder,2026-04-21,high,百度 POI 精确匹配，坐标偏差约 1.18 km。
4111010034,中央财经大学,南路校区,北京市海淀区学院南路39号,北京,北京,海淀区,,,unknown,unknown,,,,DaoSword China-Education-Data,https://github.com/DaoSword/China-Education-Data,2026-04-21,low,此校区由 DaoSword 宽表中的标注校址补入；未在 geocoder 主结果中出现，建议后续以学校校区介绍页复核。
4111010034,中央财经大学,沙河校区,北京市昌平区沙河高教园区,北京,北京,昌平区,40.17146,116.281888,unknown,unknown,,,,Naptie cn-university-geocoder + DaoSword China-Education-Data + ZsTs119/pg7go Baidu POI 数据集,https://github.com/Naptie/cn-university-geocoder,2026-04-21,high,校区地址与 DaoSword 宽表中的标注校区名一致。 百度 POI 近似匹配，坐标偏差约 0.89 km。
4111010036,对外经济贸易大学,主校区,北京市朝阳区惠新东街10号,北京,北京,朝阳区,39.979053,116.421605,unknown,unknown,,,,Naptie cn-university-geocoder + DaoSword China-Education-Data + ZsTs119/pg7go Baidu POI 数据集,https://github.com/Naptie/cn-university-geocoder,2026-04-21,high,百度 POI 精确匹配，坐标偏差约 1.36 km。
4111010037,北京物资学院,主校区,北京市通州区富河大街321号,北京,北京,通州区,39.868924,116.352166,unknown,unknown,,,,Naptie cn-university-geocoder + DaoSword China-Education-Data,https://github.com/Naptie/cn-university-geocoder,2026-04-21,medium,辅源：https://github.com/jtchen2k/hcu、https://daxue.cgsop.com/ 可用于后续人工校验校区沿革与本科去向。
4111010038,首都经济贸易大学,红庙校区,北京市朝阳门外金台里2号,北京,北京,朝阳区,39.914651,116.475892,unknown,unknown,,,,Naptie cn-university-geocoder + DaoSword China-Education-Data + ZsTs119/pg7go Baidu POI 数据集,https://github.com/Naptie/cn-university-geocoder,2026-04-21,high,校区地址与 DaoSword 宽表中的标注校区名一致。 百度 POI 近似匹配，坐标偏差约 0.85 km。
4111010038,首都经济贸易大学,校本部,北京市丰台区花乡张家路口121号,北京,北京,丰台区,39.827717,116.323967,unknown,unknown,,,,Naptie cn-university-geocoder + DaoSword China-Education-Data,https://github.com/Naptie/cn-university-geocoder,2026-04-21,high,校区地址与 DaoSword 宽表中的标注校区名一致。
4111010039,中国消防救援学院,主校区,北京市昌平区南雁路4号,北京,北京,昌平区,40.200638,116.08113,unknown,unknown,,,,Naptie cn-university-geocoder + DaoSword China-Education-Data,https://github.com/Naptie/cn-university-geocoder,2026-04-21,medium,辅源：https://github.com/jtchen2k/hcu、https://daxue.cgsop.com/ 可用于后续人工校验校区沿革与本科去向。
4111010040,外交学院,沙河校区,北京市昌平区沙河高教园区,北京,北京,昌平区,40.153877,116.280766,unknown,unknown,,,,Naptie cn-university-geocoder + DaoSword China-Education-Data,https://github.com/Naptie/cn-university-geocoder,2026-04-21,high,校区地址与 DaoSword 宽表中的标注校区名一致。
4111010040,外交学院,展览馆路校区,北京市西城区展览馆路24号,北京,北京,西城区,39.929491,116.344364,unknown,unknown,,,,Naptie cn-university-geocoder + DaoSword China-Education-Data,https://github.com/Naptie/cn-university-geocoder,2026-04-21,high,校区地址与 DaoSword 宽表中的标注校区名一致。
4111010041,中国人民公安大学,木樨地校区,北京市西城区木樨地南里1号,北京,北京,西城区,39.901683,116.337732,unknown,unknown,,,,Naptie cn-university-geocoder + DaoSword China-Education-Data + ZsTs119/pg7go Baidu POI 数据集,https://github.com/Naptie/cn-university-geocoder,2026-04-21,high,校区地址与 DaoSword 宽表中的标注校区名一致。 百度 POI 近似匹配，坐标偏差约 0.76 km。
4111010041,中国人民公安大学,团河校区,北京市大兴区团河路,北京,北京,大兴区,39.765815,116.36633,unknown,unknown,,,,Naptie cn-university-geocoder + DaoSword China-Education-Data + ZsTs119/pg7go Baidu POI 数据集,https://github.com/Naptie/cn-university-geocoder,2026-04-21,high,校区地址与 DaoSword 宽表中的标注校区名一致。 百度 POI 近似匹配，坐标偏差约 0.83 km。
4111010042,国际关系学院,主校区,北京市海淀区坡上村12号,北京,北京,海淀区,40.002565,116.280288,unknown,unknown,,,,Naptie cn-university-geocoder + DaoSword China-Education-Data,https://github.com/Naptie/cn-university-geocoder,2026-04-21,medium,辅源：https://github.com/jtchen2k/hcu、https://daxue.cgsop.com/ 可用于后续人工校验校区沿革与本科去向。
4111010043,北京体育大学,主校区,北京市海淀区信息路48号,北京,北京,海淀区,40.022438,116.312974,unknown,unknown,,,,Naptie cn-university-geocoder + DaoSword China-Education-Data,https://github.com/Naptie/cn-university-geocoder,2026-04-21,medium,辅源：https://github.com/jtchen2k/hcu、https://daxue.cgsop.com/ 可用于后续人工校验校区沿革与本科去向。
4111010045,中央音乐学院,主校区,北京市西城区鲍家街43号,北京,北京,西城区,39.911627,116.399887,unknown,unknown,,,,Naptie cn-university-geocoder + DaoSword China-Education-Data + ZsTs119/pg7go Baidu POI 数据集,https://github.com/Naptie/cn-university-geocoder,2026-04-21,high,百度 POI 精确匹配，坐标偏差约 2.95 km。
4111010046,中国音乐学院,主校区,北京市朝阳区安翔路1号,北京,北京,朝阳区,39.990227,116.372893,unknown,unknown,,,,Naptie cn-university-geocoder + DaoSword China-Education-Data,https://github.com/Naptie/cn-university-geocoder,2026-04-21,medium,辅源：https://github.com/jtchen2k/hcu、https://daxue.cgsop.com/ 可用于后续人工校验校区沿革与本科去向。
4111010047,中央美术学院,燕郊校区,河北省三河市燕郊镇燕顺路18号,河北,廊坊,三河市,39.956083,116.784233,unknown,unknown,,,,Naptie cn-university-geocoder + DaoSword China-Education-Data + ZsTs119/pg7go Baidu POI 数据集,https://github.com/Naptie/cn-university-geocoder,2026-04-21,high,百度 POI 近似匹配，坐标偏差约 0.93 km。
4111010048,中央戏剧学院,昌平校区,北京市昌平区宏福中路4号,北京,北京,昌平区,40.102921,116.373777,unknown,unknown,,,,Naptie cn-university-geocoder + DaoSword China-Education-Data + ZsTs119/pg7go Baidu POI 数据集,https://github.com/Naptie/cn-university-geocoder,2026-04-21,high,校区地址与 DaoSword 宽表中的标注校区名一致。 百度 POI 近似匹配，坐标偏差约 1.12 km。
4111010048,中央戏剧学院,东城校区,北京市东城区东棉花胡同39号,北京,北京,东城区,39.935977,116.404343,unknown,unknown,,,,Naptie cn-university-geocoder + DaoSword China-Education-Data,https://github.com/Naptie/cn-university-geocoder,2026-04-21,high,校区地址与 DaoSword 宽表中的标注校区名一致。
4111010049,中国戏曲学院,主校区,北京市丰台区万泉寺400号,北京,北京,丰台区,39.862497,116.326548,unknown,unknown,,,,Naptie cn-university-geocoder + DaoSword China-Education-Data + ZsTs119/pg7go Baidu POI 数据集,https://github.com/Naptie/cn-university-geocoder,2026-04-21,high,百度 POI 精确匹配，坐标偏差约 1.34 km。
4111010050,北京电影学院,主校区,北京市海淀区西土城路4号,北京,北京,海淀区,40.111114,116.366272,unknown,unknown,,,,Naptie cn-university-geocoder + DaoSword China-Education-Data,https://github.com/Naptie/cn-university-geocoder,2026-04-21,medium,辅源：https://github.com/jtchen2k/hcu、https://daxue.cgsop.com/ 可用于后续人工校验校区沿革与本科去向。
4111010051,北京舞蹈学院,主校区,北京市海淀区万寿寺路一号,北京,北京,海淀区,39.945738,116.313114,unknown,unknown,,,,Naptie cn-university-geocoder + DaoSword China-Education-Data,https://github.com/Naptie/cn-university-geocoder,2026-04-21,medium,辅源：https://github.com/jtchen2k/hcu、https://daxue.cgsop.com/ 可用于后续人工校验校区沿革与本科去向。
4111010052,中央民族大学,主校区,北京市海淀区中关村南大街27号,北京,北京,海淀区,39.949513,116.31445,unknown,unknown,,,,Naptie cn-university-geocoder + DaoSword China-Education-Data,https://github.com/Naptie/cn-university-geocoder,2026-04-21,medium,辅源：https://github.com/jtchen2k/hcu、https://daxue.cgsop.com/ 可用于后续人工校验校区沿革与本科去向。
4111010053,中国政法大学,昌平校区,北京市昌平区府学路27号,北京,北京,昌平区,40.230445,116.254443,unknown,unknown,,,,DaoSword China-Education-Data + ZsTs119/pg7go Baidu POI 数据集,https://github.com/DaoSword/China-Education-Data,2026-04-21,low,此校区由 DaoSword 宽表中的标注校址补入；未在 geocoder 主结果中出现，建议后续以学校校区介绍页复核。
4111010053,中国政法大学,海淀校区,北京市海淀区西土城路25号,北京,北京,海淀区,,,unknown,unknown,,,,DaoSword China-Education-Data,https://github.com/DaoSword/China-Education-Data,2026-04-21,low,此校区由 DaoSword 宽表中的标注校址补入；未在 geocoder 主结果中出现，建议后续以学校校区介绍页复核。
4111010054,华北电力大学,保定校区,河北省保定市莲池区永华北大街619号,河北,保定,莲池区,38.87617680764038,115.50544947619628,unknown,unknown,,,,Naptie cn-university-geocoder + DaoSword China-Education-Data + ZsTs119/pg7go Baidu POI 数据集,https://github.com/Naptie/cn-university-geocoder,2026-04-21,high,百度 POI 近似匹配，坐标偏差约 0.95 km。
4111010054,华北电力大学,主校区,北京市昌平区回龙观北农路2号,北京,北京,昌平区,40.089405,116.310265,unknown,unknown,,,,Naptie cn-university-geocoder + DaoSword China-Education-Data + ZsTs119/pg7go Baidu POI 数据集,https://github.com/Naptie/cn-university-geocoder,2026-04-21,high,百度 POI 精确匹配，坐标偏差约 0.87 km。
4111010853,北京工业职业技术学院,主校区,北京市石景山区石门路368号,北京,北京,石景山区,39.960458,116.120933,unknown,unknown,,,,Naptie cn-university-geocoder + DaoSword China-Education-Data + ZsTs119/pg7go Baidu POI 数据集,https://github.com/Naptie/cn-university-geocoder,2026-04-21,high,百度 POI 精确匹配，坐标偏差约 0.85 km。
4111010857,北京信息职业技术学院,东校区,北京市朝阳区东坝红松园北里甲1号,北京,北京,朝阳区,39.965169,116.551202,unknown,unknown,,,,Naptie cn-university-geocoder + DaoSword China-Education-Data,https://github.com/Naptie/cn-university-geocoder,2026-04-21,high,校区地址与 DaoSword 宽表中的标注校区名一致。
4111010857,北京信息职业技术学院,校本部,北京市朝阳区芳园西路5号,北京,北京,朝阳区,,,unknown,unknown,,,,DaoSword China-Education-Data,https://github.com/DaoSword/China-Education-Data,2026-04-21,low,此校区由 DaoSword 宽表中的标注校址补入；未在 geocoder 主结果中出现，建议后续以学校校区介绍页复核。
4111010858,北京科技职业大学,主校区,北京市大兴区凉水河一街9号,北京,北京,大兴区,,,unknown,unknown,,,,DaoSword China-Education-Data,https://github.com/DaoSword/China-Education-Data,2026-04-21,low,当前为学校级校址占位；需要后续 deep research 继续补本科生具体校区、是否大一分校和地铁距离。
4111011090,北京京北职业技术学院,主校区,北京市怀柔区小中富乐一区188号,北京,北京,怀柔区,40.338039,116.635394,unknown,unknown,,,,Naptie cn-university-geocoder + DaoSword China-Education-Data,https://github.com/Naptie/cn-university-geocoder,2026-04-21,medium,辅源：https://github.com/jtchen2k/hcu、https://daxue.cgsop.com/ 可用于后续人工校验校区沿革与本科去向。
4111011092,北京交通职业技术学院,主校区,北京市昌平区昌平镇北京交通职业技术学院,北京,北京,昌平区,40.227979,116.198122,unknown,unknown,,,,Naptie cn-university-geocoder + DaoSword China-Education-Data,https://github.com/Naptie/cn-university-geocoder,2026-04-21,medium,辅源：https://github.com/jtchen2k/hcu、https://daxue.cgsop.com/ 可用于后续人工校验校区沿革与本科去向。
4111011149,中华女子学院,主校区,北京市朝阳区育慧东路1号,北京,北京,朝阳区,39.994951,116.435292,unknown,unknown,,,,Naptie cn-university-geocoder + DaoSword China-Education-Data,https://github.com/Naptie/cn-university-geocoder,2026-04-21,medium,辅源：https://github.com/jtchen2k/hcu、https://daxue.cgsop.com/ 可用于后续人工校验校区沿革与本科去向。
4111011232,北京信息科技大学,主校区,北京市海淀区清河小营东路12号,北京,北京,海淀区,39.963659,116.483159,unknown,unknown,,,,Naptie cn-university-geocoder + DaoSword China-Education-Data,https://github.com/Naptie/cn-university-geocoder,2026-04-21,medium,辅源：https://github.com/jtchen2k/hcu、https://daxue.cgsop.com/ 可用于后续人工校验校区沿革与本科去向。
4111011413,中国矿业大学（北京）,沙河校区,北京市昌平区沙河高教园区南二街9号,北京,北京,昌平区,39.726045,116.169045,unknown,unknown,,,,Naptie cn-university-geocoder + DaoSword China-Education-Data,https://github.com/Naptie/cn-university-geocoder,2026-04-21,high,校区地址与 DaoSword 宽表中的标注校区名一致。
4111011413,中国矿业大学（北京）,主校区,北京市海淀区学院路丁11号,北京,北京,海淀区,39.997542,116.348374,unknown,unknown,,,,Naptie cn-university-geocoder + DaoSword China-Education-Data,https://github.com/Naptie/cn-university-geocoder,2026-04-21,high,校区地址与 DaoSword 宽表中的标注校区名一致。
4111011414,中国石油大学（北京）,主校区,北京市昌平区府学路18号,北京,北京,昌平区,40.214783,116.248931,unknown,unknown,,,,Naptie cn-university-geocoder + DaoSword China-Education-Data,https://github.com/Naptie/cn-university-geocoder,2026-04-21,medium,辅源：https://github.com/jtchen2k/hcu、https://daxue.cgsop.com/ 可用于后续人工校验校区沿革与本科去向。
4111011415,中国地质大学（北京）,主校区,北京市海淀区学院路29号,北京,北京,海淀区,39.98878,116.345464,unknown,unknown,,,,Naptie cn-university-geocoder + DaoSword China-Education-Data,https://github.com/Naptie/cn-university-geocoder,2026-04-21,medium,辅源：https://github.com/jtchen2k/hcu、https://daxue.cgsop.com/ 可用于后续人工校验校区沿革与本科去向。
4111011417,北京联合大学,主校区,北京市朝阳区北四环东路97号,北京,北京,朝阳区,39.989248,116.420945,unknown,unknown,,,,Naptie cn-university-geocoder + DaoSword China-Education-Data + ZsTs119/pg7go Baidu POI 数据集,https://github.com/Naptie/cn-university-geocoder,2026-04-21,high,百度 POI 精确匹配，坐标偏差约 1.37 km。
4111011418,北京城市学院,顺义校区,北京市顺义区杨镇木燕路,北京,北京,顺义区,40.1591,116.815998,unknown,unknown,,,,Naptie cn-university-geocoder + DaoSword China-Education-Data + ZsTs119/pg7go Baidu POI 数据集,https://github.com/Naptie/cn-university-geocoder,2026-04-21,high,百度 POI 近似匹配，坐标偏差约 0.89 km。
4111011418,北京城市学院,主校区,北京市海淀区北四环中路269号,北京,北京,海淀区,39.986258,116.340626,unknown,unknown,,,,Naptie cn-university-geocoder + DaoSword China-Education-Data,https://github.com/Naptie/cn-university-geocoder,2026-04-21,medium,辅源：https://github.com/jtchen2k/hcu、https://daxue.cgsop.com/ 可用于后续人工校验校区沿革与本科去向。
4111011625,中国青年政治学院,主校区,北京市海淀区西三环北路25号,北京,北京,海淀区,,,unknown,unknown,,,,DaoSword China-Education-Data,https://github.com/DaoSword/China-Education-Data,2026-04-21,low,当前为学校级校址占位；需要后续 deep research 继续补本科生具体校区、是否大一分校和地铁距离。
4111011626,北京青年政治学院,主校区,北京市朝阳区花家地街9号,北京,北京,朝阳区,39.979775,116.468542,unknown,unknown,,,,Naptie cn-university-geocoder + DaoSword China-Education-Data,https://github.com/Naptie/cn-university-geocoder,2026-04-21,medium,辅源：https://github.com/jtchen2k/hcu、https://daxue.cgsop.com/ 可用于后续人工校验校区沿革与本科去向。
4111011831,首钢工学院,主校区,北京市石景山区晋元庄路6号,北京,北京,石景山区,39.926305,116.20129,unknown,unknown,,,,Naptie cn-university-geocoder + DaoSword China-Education-Data + ZsTs119/pg7go Baidu POI 数据集,https://github.com/Naptie/cn-university-geocoder,2026-04-21,high,百度 POI 精确匹配，坐标偏差约 0.91 km。
4111012448,北京农业职业学院,北校区,北京市海淀区香山普安店29号,北京,北京,海淀区,39.982685,116.215855,unknown,unknown,,,,Naptie cn-university-geocoder + DaoSword China-Education-Data,https://github.com/Naptie/cn-university-geocoder,2026-04-21,high,校区地址与 DaoSword 宽表中的标注校区名一致。
4111012448,北京农业职业学院,南校区,北京市房山区长阳镇稻田南里5号,北京,北京,房山区,39.771347,116.223384,unknown,unknown,,,,Naptie cn-university-geocoder + DaoSword China-Education-Data,https://github.com/Naptie/cn-university-geocoder,2026-04-21,high,校区地址与 DaoSword 宽表中的标注校区名一致。
4111012451,北京政法职业学院,主校区,北京市大兴区黄亦路（团河段）2号,北京,北京,大兴区,39.917153,116.507715,unknown,unknown,,,,Naptie cn-university-geocoder + DaoSword China-Education-Data,https://github.com/Naptie/cn-university-geocoder,2026-04-21,medium,辅源：https://github.com/jtchen2k/hcu、https://daxue.cgsop.com/ 可用于后续人工校验校区沿革与本科去向。
4111012453,中国劳动关系学院,北京校区,北京市海淀区增光路45号,北京,北京,海淀区,39.929654,116.317734,unknown,unknown,,,,Naptie cn-university-geocoder + DaoSword China-Education-Data,https://github.com/Naptie/cn-university-geocoder,2026-04-21,high,校区地址与 DaoSword 宽表中的标注校区名一致。
4111012453,中国劳动关系学院,涿州校区,河北省涿州市,河北,保定,涿州市,39.470438,115.915501,unknown,unknown,,,,Naptie cn-university-geocoder + DaoSword China-Education-Data + ZsTs119/pg7go Baidu POI 数据集,https://github.com/Naptie/cn-university-geocoder,2026-04-21,high,校区地址与 DaoSword 宽表中的标注校区名一致。 百度 POI 近似匹配，坐标偏差约 0.79 km。
4111012561,北京财贸职业学院,朝阳校区,北京市朝阳区水碓子东路15号,北京,北京,朝阳区,,,unknown,unknown,,,,DaoSword China-Education-Data,https://github.com/DaoSword/China-Education-Data,2026-04-21,low,此校区由 DaoSword 宽表中的标注校址补入；未在 geocoder 主结果中出现，建议后续以学校校区介绍页复核。
4111012561,北京财贸职业学院,东城校区,北京市东城区东四南大街礼士胡同41号,北京,北京,东城区,39.928422,116.430855,unknown,unknown,,,,DaoSword China-Education-Data + ZsTs119/pg7go Baidu POI 数据集,https://github.com/DaoSword/China-Education-Data,2026-04-21,low,此校区由 DaoSword 宽表中的标注校址补入；未在 geocoder 主结果中出现，建议后续以学校校区介绍页复核。
4111012561,北京财贸职业学院,校本部,北京市通州区北关大街88号,北京,北京,通州区,39.913353,116.667865,unknown,unknown,,,,Naptie cn-university-geocoder + DaoSword China-Education-Data,https://github.com/Naptie/cn-university-geocoder,2026-04-21,high,校区地址与 DaoSword 宽表中的标注校区名一致。
4111012561,北京财贸职业学院,涿州校区,河北省涿州市双塔区大石桥团结路8号,北京,北京,涿州市双塔区,39.593785,116.033343,unknown,unknown,,,,Naptie cn-university-geocoder + DaoSword China-Education-Data,https://github.com/Naptie/cn-university-geocoder,2026-04-21,high,校区地址与 DaoSword 宽表中的标注校区名一致。
4111012564,北京北大方正软件职业技术学院,主校区,北京市通州区东方大学城,北京,北京,通州区,40.030962,116.345235,unknown,unknown,,,,Naptie cn-university-geocoder + DaoSword China-Education-Data,https://github.com/Naptie/cn-university-geocoder,2026-04-21,medium,辅源：https://github.com/jtchen2k/hcu、https://daxue.cgsop.com/ 可用于后续人工校验校区沿革与本科去向。
4111012565,北京经贸职业学院,主校区,北京市房山区良乡长虹东路高教园区,北京,北京,房山区,39.720221,116.158038,unknown,unknown,,,,Naptie cn-university-geocoder + DaoSword China-Education-Data + ZsTs119/pg7go Baidu POI 数据集,https://github.com/Naptie/cn-university-geocoder,2026-04-21,high,百度 POI 精确匹配，坐标偏差约 1.37 km。
4111012566,北京经济技术职业学院,主校区,北京市东燕郊开发区北京经济技术职业学院,北京,北京,东燕郊开发区,39.982511,116.468558,unknown,unknown,,,,Naptie cn-university-geocoder + DaoSword China-Education-Data,https://github.com/Naptie/cn-university-geocoder,2026-04-21,medium,辅源：https://github.com/jtchen2k/hcu、https://daxue.cgsop.com/ 可用于后续人工校验校区沿革与本科去向。
4111012567,北京戏曲艺术职业学院,主校区,北京市丰台区马家堡东里8号,北京,北京,丰台区,39.854269,116.371061,unknown,unknown,,,,Naptie cn-university-geocoder + DaoSword China-Education-Data + ZsTs119/pg7go Baidu POI 数据集,https://github.com/Naptie/cn-university-geocoder,2026-04-21,high,百度 POI 精确匹配，坐标偏差约 1.37 km。
4111012568,北京汇佳职业学院,主校区,北京市昌平区创新路20号,北京,北京,昌平区,40.192646,116.237702,unknown,unknown,,,,Naptie cn-university-geocoder + DaoSword China-Education-Data,https://github.com/Naptie/cn-university-geocoder,2026-04-21,medium,辅源：https://github.com/jtchen2k/hcu、https://daxue.cgsop.com/ 可用于后续人工校验校区沿革与本科去向。
4111012733,北京科技经营管理学院,主校区,北京市昌平区沙河镇顺沙路6号院,北京,北京,昌平区,40.142685,116.284,unknown,unknown,,,,Naptie cn-university-geocoder + DaoSword China-Education-Data,https://github.com/Naptie/cn-university-geocoder,2026-04-21,medium,辅源：https://github.com/jtchen2k/hcu、https://daxue.cgsop.com/ 可用于后续人工校验校区沿革与本科去向。
4111012802,吉利学院,主校区,四川省成都市东部新区成简大道二段123号,四川,成都,成都市东部新区,30.490061,104.425965,unknown,unknown,,,,Naptie cn-university-geocoder + DaoSword China-Education-Data,https://github.com/Naptie/cn-university-geocoder,2026-04-21,medium,辅源：https://github.com/jtchen2k/hcu、https://daxue.cgsop.com/ 可用于后续人工校验校区沿革与本科去向。
4111013629,首都师范大学科德学院,主校区,北京市大兴区榆垡镇榆祥路10号,北京,北京,大兴区,39.511625,116.306271,unknown,unknown,,,,Naptie cn-university-geocoder + DaoSword China-Education-Data + ZsTs119/pg7go Baidu POI 数据集,https://github.com/Naptie/cn-university-geocoder,2026-04-21,high,百度 POI 精确匹配，坐标偏差约 1.34 km。
4111013630,北京金融科技学院,主校区,北京市通州区宋庄南路甲1号,北京,北京,通州区,,,unknown,unknown,,,,DaoSword China-Education-Data,https://github.com/DaoSword/China-Education-Data,2026-04-21,low,当前为学校级校址占位；需要后续 deep research 继续补本科生具体校区、是否大一分校和地铁距离。
4111013703,北京科技职业学院,主校区,北京市昌平区沙河沙阳路18号,北京,北京,昌平区,40.114573834125466,116.25181401656306,unknown,unknown,,,,Naptie cn-university-geocoder + DaoSword China-Education-Data + ZsTs119/pg7go Baidu POI 数据集,https://github.com/Naptie/cn-university-geocoder,2026-04-21,high,百度 POI 精确匹配，坐标偏差约 1.11 km。
4111013728,北京培黎职业学院,主校区,北京市海淀区双清路1号,北京,北京,海淀区,40.019547,116.339181,unknown,unknown,,,,Naptie cn-university-geocoder + DaoSword China-Education-Data,https://github.com/Naptie/cn-university-geocoder,2026-04-21,medium,辅源：https://github.com/jtchen2k/hcu、https://daxue.cgsop.com/ 可用于后续人工校验校区沿革与本科去向。
4111013901,北京邮电大学世纪学院,主校区,北京市延庆区康庄镇西官路,北京,北京,延庆区,39.959911,116.352124,unknown,unknown,,,,Naptie cn-university-geocoder + DaoSword China-Education-Data,https://github.com/Naptie/cn-university-geocoder,2026-04-21,medium,辅源：https://github.com/jtchen2k/hcu、https://daxue.cgsop.com/ 可用于后续人工校验校区沿革与本科去向。
4111013904,北京工业大学耿丹学院,主校区,北京市顺义区牛栏山镇牛富路3号,北京,北京,顺义区,40.214468,116.646318,unknown,unknown,,,,Naptie cn-university-geocoder + DaoSword China-Education-Data + ZsTs119/pg7go Baidu POI 数据集,https://github.com/Naptie/cn-university-geocoder,2026-04-21,high,百度 POI 精确匹配，坐标偏差约 1.33 km。
4111014019,北京警察学院,主校区,北京市昌平区南口镇南涧路11号,北京,北京,昌平区,40.253044,116.165852,unknown,unknown,,,,Naptie cn-university-geocoder + DaoSword China-Education-Data,https://github.com/Naptie/cn-university-geocoder,2026-04-21,medium,辅源：https://github.com/jtchen2k/hcu、https://daxue.cgsop.com/ 可用于后续人工校验校区沿革与本科去向。
4111014073,北京经济管理职业学院,固安校区,北京市京开高速永定河桥南800米路东,北京,北京,,39.782127,116.344622,unknown,unknown,,,,Naptie cn-university-geocoder + DaoSword China-Education-Data,https://github.com/Naptie/cn-university-geocoder,2026-04-21,high,校区地址与 DaoSword 宽表中的标注校区名一致。
4111014073,北京经济管理职业学院,望京校区,北京市朝阳区花家地街12号,北京,北京,朝阳区,39.983905,116.474454,unknown,unknown,,,,Naptie cn-university-geocoder + DaoSword China-Education-Data,https://github.com/Naptie/cn-university-geocoder,2026-04-21,high,校区地址与 DaoSword 宽表中的标注校区名一致。
4111014075,北京劳动保障职业学院,北校区,北京市昌平区南口路32号,北京,北京,昌平区,40.243388,116.126503,unknown,unknown,,,,Naptie cn-university-geocoder + DaoSword China-Education-Data,https://github.com/Naptie/cn-university-geocoder,2026-04-21,high,校区地址与 DaoSword 宽表中的标注校区名一致。
4111014075,北京劳动保障职业学院,南校区,北京市朝阳区惠新东街5号,北京,北京,朝阳区,39.985567,116.423834,unknown,unknown,,,,Naptie cn-university-geocoder + DaoSword China-Education-Data,https://github.com/Naptie/cn-university-geocoder,2026-04-21,high,校区地址与 DaoSword 宽表中的标注校区名一致。
4111014139,民政职业大学,主校区,北京市大兴区科苑东路1号,北京,北京,大兴区,,,unknown,unknown,,,,DaoSword China-Education-Data,https://github.com/DaoSword/China-Education-Data,2026-04-21,low,当前为学校级校址占位；需要后续 deep research 继续补本科生具体校区、是否大一分校和地铁距离。
4111014140,北京艺术传媒职业学院,主校区,北京市海淀区聂各庄东路10号,北京,北京,海淀区,40.097803,116.113816,unknown,unknown,,,,Naptie cn-university-geocoder + DaoSword China-Education-Data,https://github.com/Naptie/cn-university-geocoder,2026-04-21,medium,辅源：https://github.com/jtchen2k/hcu、https://daxue.cgsop.com/ 可用于后续人工校验校区沿革与本科去向。
4111014201,北京第二外国语学院中瑞酒店管理学院,主校区,北京市大兴区庞各庄镇工业区田园路11号,北京,北京,大兴区,39.911696,116.557721,unknown,unknown,,,,Naptie cn-university-geocoder + DaoSword China-Education-Data,https://github.com/Naptie/cn-university-geocoder,2026-04-21,medium,辅源：https://github.com/jtchen2k/hcu、https://daxue.cgsop.com/ 可用于后续人工校验校区沿革与本科去向。
4111014215,北京体育职业学院,分校区,北京市大兴区芦城乡政府路21号,北京,北京,大兴区,39.617814,116.501799,unknown,unknown,,,,Naptie cn-university-geocoder + DaoSword China-Education-Data,https://github.com/Naptie/cn-university-geocoder,2026-04-21,high,校区地址与 DaoSword 宽表中的标注校区名一致。
4111014215,北京体育职业学院,院本部,北京市丰台区光彩北路4号,北京,北京,丰台区,39.853403,116.411153,unknown,unknown,,,,Naptie cn-university-geocoder + DaoSword China-Education-Data + ZsTs119/pg7go Baidu POI 数据集,https://github.com/Naptie/cn-university-geocoder,2026-04-21,high,校区地址与 DaoSword 宽表中的标注校区名一致。 百度 POI 近似匹配，坐标偏差约 0.77 km。
4111014279,北京交通运输职业学院,大兴校区,北京市大兴区黄村清源路北,北京,北京,大兴区,39.743711,116.327756,unknown,unknown,,,,Naptie cn-university-geocoder + DaoSword China-Education-Data,https://github.com/Naptie/cn-university-geocoder,2026-04-21,high,校区地址与 DaoSword 宽表中的标注校区名一致。
4111014279,北京交通运输职业学院,海淀校区,北京市海淀区西三旗悦秀路90号,北京,北京,海淀区,40.051272,116.337713,unknown,unknown,,,,Naptie cn-university-geocoder + DaoSword China-Education-Data,https://github.com/Naptie/cn-university-geocoder,2026-04-21,high,校区地址与 DaoSword 宽表中的标注校区名一致。
4111014395,北京卫生职业学院,主校区,北京市通州区九棵树东路128号,北京,北京,通州区,39.884187,116.662786,unknown,unknown,,,,Naptie cn-university-geocoder + DaoSword China-Education-Data + ZsTs119/pg7go Baidu POI 数据集,https://github.com/Naptie/cn-university-geocoder,2026-04-21,high,百度 POI 精确匹配，坐标偏差约 1.32 km。
4111014430,中国科学院大学,雁栖湖校区,北京市怀柔区雁栖湖东路1号,北京,北京,怀柔区,40.408977,116.682321,unknown,unknown,,,,Naptie cn-university-geocoder + DaoSword China-Education-Data + ZsTs119/pg7go Baidu POI 数据集,https://github.com/Naptie/cn-university-geocoder,2026-04-21,high,校区地址与 DaoSword 宽表中的标注校区名一致。 百度 POI 近似匹配，坐标偏差约 0.93 km。
4111014430,中国科学院大学,玉泉路校区,北京市玉泉路19号,北京,北京,石景山区,39.915389,116.257207,unknown,unknown,,,,DaoSword China-Education-Data + ZsTs119/pg7go Baidu POI 数据集,https://github.com/DaoSword/China-Education-Data,2026-04-21,low,此校区由 DaoSword 宽表中的标注校址补入；未在 geocoder 主结果中出现，建议后续以学校校区介绍页复核。
4111014588,北京网络职业学院,主校区,北京市房山区窦大路12号,北京,北京,房山区,39.687552,116.062349,unknown,unknown,,,,Naptie cn-university-geocoder + DaoSword China-Education-Data + ZsTs119/pg7go Baidu POI 数据集,https://github.com/Naptie/cn-university-geocoder,2026-04-21,high,百度 POI 精确匹配，坐标偏差约 1.37 km。
4111014596,中国社会科学院大学,主校区,北京市房山区长于大街11号,北京,北京,房山区,39.738489,116.174167,unknown,unknown,,,,Naptie cn-university-geocoder + DaoSword China-Education-Data,https://github.com/Naptie/cn-university-geocoder,2026-04-21,medium,辅源：https://github.com/jtchen2k/hcu、https://daxue.cgsop.com/ 可用于后续人工校验校区沿革与本科去向。
4112010055,南开大学,八里台校区,天津市南开区卫津路94号,天津,天津,南开区,39.103751,117.167273,unknown,unknown,,,,Naptie cn-university-geocoder + DaoSword China-Education-Data + ZsTs119/pg7go Baidu POI 数据集,https://github.com/Naptie/cn-university-geocoder,2026-04-21,high,校区地址与 DaoSword 宽表中的标注校区名一致。 百度 POI 近似匹配，坐标偏差约 0.95 km。
4112010055,南开大学,津南校区,天津市海河教育园区同砚路38号,天津,天津,津南区,38.994944,117.352678,unknown,unknown,,,,DaoSword China-Education-Data + ZsTs119/pg7go Baidu POI 数据集,https://github.com/DaoSword/China-Education-Data,2026-04-21,low,此校区由 DaoSword 宽表中的标注校址补入；未在 geocoder 主结果中出现，建议后续以学校校区介绍页复核。
4112010055,南开大学,泰达校区,天津市经济开发区宏达街23号,天津,天津,滨海新区,39.032938,117.719413,unknown,unknown,,,,DaoSword China-Education-Data + ZsTs119/pg7go Baidu POI 数据集,https://github.com/DaoSword/China-Education-Data,2026-04-21,low,此校区由 DaoSword 宽表中的标注校址补入；未在 geocoder 主结果中出现，建议后续以学校校区介绍页复核。
4112010056,天津大学,北洋园校区,天津市津南区雅观路135号,天津,天津,津南区,39.003936,117.31903,unknown,unknown,,,,DaoSword China-Education-Data + ZsTs119/pg7go Baidu POI 数据集,https://github.com/DaoSword/China-Education-Data,2026-04-21,medium,此校区由 DaoSword 宽表中的标注校址补入；未在 geocoder 主结果中出现，建议后续以学校校区介绍页复核。
4112010056,天津大学,卫津路校区,天津市南开区卫津路92号,天津,天津,南开区,39.11011020378067,117.17577434856815,unknown,unknown,,,,Naptie cn-university-geocoder + DaoSword China-Education-Data,https://github.com/Naptie/cn-university-geocoder,2026-04-21,high,校区地址与 DaoSword 宽表中的标注校区名一致。
4112010057,天津科技大学,滨海校区,天津市滨海新区经济技术开发区第十三大街9号,天津,天津,滨海新区,,,unknown,unknown,,,,DaoSword China-Education-Data,https://github.com/DaoSword/China-Education-Data,2026-04-21,low,此校区由 DaoSword 宽表中的标注校址补入；未在 geocoder 主结果中出现，建议后续以学校校区介绍页复核。
4112010057,天津科技大学,河西校区,天津市河西区大沽南路1038号,天津,天津,河西区,39.068818,117.272677,unknown,unknown,,,,Naptie cn-university-geocoder + DaoSword China-Education-Data + ZsTs119/pg7go Baidu POI 数据集,https://github.com/Naptie/cn-university-geocoder,2026-04-21,high,校区地址与 DaoSword 宽表中的标注校区名一致。 百度 POI 近似匹配，坐标偏差约 0.92 km。
4112010057,天津科技大学,主校区,天津市滨海新区第十三大街29号,天津,天津,滨海新区,39.087531,117.692932,unknown,unknown,,,,Naptie cn-university-geocoder + ZsTs119/pg7go Baidu POI 数据集,https://github.com/Naptie/cn-university-geocoder,2026-04-21,medium,百度 POI 精确匹配，坐标偏差约 2.07 km。
4112010058,天津工业大学,主校区,天津市西青区宾水西道399号,天津,天津,西青区,39.064346,117.108233,unknown,unknown,,,,Naptie cn-university-geocoder + DaoSword China-Education-Data,https://github.com/Naptie/cn-university-geocoder,2026-04-21,medium,辅源：https://github.com/jtchen2k/hcu、https://daxue.cgsop.com/ 可用于后续人工校验校区沿革与本科去向。
4112010059,中国民航大学,主校区,天津市东丽区津北公路2898号,天津,天津,东丽区,39.108974,117.352776,unknown,unknown,,,,Naptie cn-university-geocoder + DaoSword China-Education-Data + ZsTs119/pg7go Baidu POI 数据集,https://github.com/Naptie/cn-university-geocoder,2026-04-21,high,百度 POI 精确匹配，坐标偏差约 0.87 km。
4112010060,天津理工大学,主校区,天津市西青区宾水西道391号,天津,天津,西青区,39.05906,117.135249,unknown,unknown,,,,Naptie cn-university-geocoder + DaoSword China-Education-Data + ZsTs119/pg7go Baidu POI 数据集,https://github.com/Naptie/cn-university-geocoder,2026-04-21,high,百度 POI 精确匹配，坐标偏差约 1.37 km。
4112010061,天津农学院,东校区,天津市西青区津静路22号,天津,天津,西青区,,,unknown,unknown,,,,DaoSword China-Education-Data,https://github.com/DaoSword/China-Education-Data,2026-04-21,low,此校区由 DaoSword 宽表中的标注校址补入；未在 geocoder 主结果中出现，建议后续以学校校区介绍页复核。
4112010061,天津农学院,蓟州校区,天津市蓟州区五百户镇青池1村,天津,天津,蓟州区,,,unknown,unknown,,,,DaoSword China-Education-Data,https://github.com/DaoSword/China-Education-Data,2026-04-21,low,此校区由 DaoSword 宽表中的标注校址补入；未在 geocoder 主结果中出现，建议后续以学校校区介绍页复核。
4112010061,天津农学院,西校区,天津市西青区津同路19号,天津,天津,西青区,39.167527,116.981518,unknown,unknown,,,,DaoSword China-Education-Data + ZsTs119/pg7go Baidu POI 数据集,https://github.com/DaoSword/China-Education-Data,2026-04-21,low,此校区由 DaoSword 宽表中的标注校址补入；未在 geocoder 主结果中出现，建议后续以学校校区介绍页复核。
4112010062,天津医科大学,主校区,天津市和平区气象台路22号,天津,天津,和平区,38.925264,116.917671,unknown,unknown,,,,Naptie cn-university-geocoder + DaoSword China-Education-Data,https://github.com/Naptie/cn-university-geocoder,2026-04-21,medium,辅源：https://github.com/jtchen2k/hcu、https://daxue.cgsop.com/ 可用于后续人工校验校区沿革与本科去向。
4112010063,天津中医药大学,主校区,天津市静海区团泊新城西区鄱阳湖路10号,天津,天津,静海区,38.952193,117.06468,unknown,unknown,,,,Naptie cn-university-geocoder + DaoSword China-Education-Data,https://github.com/Naptie/cn-university-geocoder,2026-04-21,medium,辅源：https://github.com/jtchen2k/hcu、https://daxue.cgsop.com/ 可用于后续人工校验校区沿革与本科去向。
4112010065,天津师范大学,主校区,天津市西青区宾水西道393号,天津,天津,西青区,39.099143,117.176458,unknown,unknown,,,,Naptie cn-university-geocoder + DaoSword China-Education-Data + ZsTs119/pg7go Baidu POI 数据集,https://github.com/Naptie/cn-university-geocoder,2026-04-21,high,百度 POI 精确匹配，坐标偏差约 5.07 km。
4112010066,天津职业技术师范大学,主校区,天津市河西区大沽南路1310号,天津,天津,津南区,39.058336,117.289988,unknown,unknown,,,,Naptie cn-university-geocoder + DaoSword China-Education-Data + ZsTs119/pg7go Baidu POI 数据集,https://github.com/Naptie/cn-university-geocoder,2026-04-21,high,百度 POI 精确匹配，坐标偏差约 1.34 km。
4112010068,天津外国语大学,滨海校区,天津市滨海新区大港学府路60号,天津,天津,滨海新区,38.868353,117.47379,unknown,unknown,,,,DaoSword China-Education-Data + ZsTs119/pg7go Baidu POI 数据集,https://github.com/DaoSword/China-Education-Data,2026-04-21,low,此校区由 DaoSword 宽表中的标注校址补入；未在 geocoder 主结果中出现，建议后续以学校校区介绍页复核。
4112010068,天津外国语大学,马场道校区,天津市河西区马场道117号,天津,天津,河西区,,,unknown,unknown,,,,DaoSword China-Education-Data,https://github.com/DaoSword/China-Education-Data,2026-04-21,low,此校区由 DaoSword 宽表中的标注校址补入；未在 geocoder 主结果中出现，建议后续以学校校区介绍页复核。
4112010068,天津外国语大学,主校区,天津市河西区马场道117号,天津,天津,河西区,39.107122,117.203859,unknown,unknown,,,,Naptie cn-university-geocoder + ZsTs119/pg7go Baidu POI 数据集,https://github.com/Naptie/cn-university-geocoder,2026-04-21,medium,百度 POI 精确匹配，坐标偏差约 1.35 km。
4112010069,天津商业大学,主校区,天津市北辰区光荣道409号,天津,天津,北辰区,39.151929,117.131448,unknown,unknown,,,,Naptie cn-university-geocoder + DaoSword China-Education-Data + ZsTs119/pg7go Baidu POI 数据集,https://github.com/Naptie/cn-university-geocoder,2026-04-21,high,百度 POI 精确匹配，坐标偏差约 3.95 km。
4112010070,天津财经大学,主校区,天津市河西区珠江道25号,天津,天津,河西区,39.107493,117.200546,unknown,unknown,,,,Naptie cn-university-geocoder + DaoSword China-Education-Data,https://github.com/Naptie/cn-university-geocoder,2026-04-21,medium,辅源：https://github.com/jtchen2k/hcu、https://daxue.cgsop.com/ 可用于后续人工校验校区沿革与本科去向。
4112010071,天津体育学院,河西校区,天津市河西区卫津南路51号,天津,天津,河西区,,,unknown,unknown,,,,DaoSword China-Education-Data,https://github.com/DaoSword/China-Education-Data,2026-04-21,low,此校区由 DaoSword 宽表中的标注校址补入；未在 geocoder 主结果中出现，建议后续以学校校区介绍页复核。
4112010071,天津体育学院,团泊校区,天津市静海区团泊新城西区东海道16号,天津,天津,静海区,,,unknown,unknown,,,,DaoSword China-Education-Data,https://github.com/DaoSword/China-Education-Data,2026-04-21,low,此校区由 DaoSword 宽表中的标注校址补入；未在 geocoder 主结果中出现，建议后续以学校校区介绍页复核。
4112010072,天津音乐学院,主校区,天津市河东区十四经路9号,天津,天津,河东区,39.121944,117.223517,unknown,unknown,,,,Naptie cn-university-geocoder + DaoSword China-Education-Data,https://github.com/Naptie/cn-university-geocoder,2026-04-21,medium,辅源：https://github.com/jtchen2k/hcu、https://daxue.cgsop.com/ 可用于后续人工校验校区沿革与本科去向。
4112010073,天津美术学院,主校区,天津市河北区天纬路4号,天津,天津,河北区,39.182068,117.211033,unknown,unknown,,,,Naptie cn-university-geocoder + DaoSword China-Education-Data + ZsTs119/pg7go Baidu POI 数据集,https://github.com/Naptie/cn-university-geocoder,2026-04-21,high,百度 POI 精确匹配，坐标偏差约 2.73 km。
4112010792,天津城建大学,主校区,天津市西青区津静路26号,天津,天津,西青区,39.093789,117.089013,unknown,unknown,,,,Naptie cn-university-geocoder + DaoSword China-Education-Data + ZsTs119/pg7go Baidu POI 数据集,https://github.com/Naptie/cn-university-geocoder,2026-04-21,high,百度 POI 精确匹配，坐标偏差约 1.37 km。
4112010859,天津天狮学院,主校区,天津市武清开发区翠亨路128号,天津,天津,武清开发区,39.428187,117.032631,unknown,unknown,,,,Naptie cn-university-geocoder + DaoSword China-Education-Data,https://github.com/Naptie/cn-university-geocoder,2026-04-21,medium,辅源：https://github.com/jtchen2k/hcu、https://daxue.cgsop.com/ 可用于后续人工校验校区沿革与本科去向。
4112011032,天津市职业大学,海河园校区,天津市海河教育园区雅观路21号,天津,天津,海河教育园区,,,unknown,unknown,,,,DaoSword China-Education-Data,https://github.com/DaoSword/China-Education-Data,2026-04-21,low,当前仅有聚合校址，尚未接入官方招生章程或校区说明页，暂不参与硬筛选推导。
4112011032,天津市职业大学,主校区,天津市北辰区洛河道2号,天津,天津,北辰区,,,unknown,unknown,,,,DaoSword China-Education-Data,https://github.com/DaoSword/China-Education-Data,2026-04-21,low,当前仅有聚合校址，尚未接入官方招生章程或校区说明页，暂不参与硬筛选推导。
4112012105,天津中德应用技术大学,主校区,天津市海河教育园区雅深路2号,天津,天津,津南区,39.010095,117.379727,unknown,unknown,,,,Naptie cn-university-geocoder + DaoSword China-Education-Data + ZsTs119/pg7go Baidu POI 数据集,https://github.com/Naptie/cn-university-geocoder,2026-04-21,high,百度 POI 精确匹配，坐标偏差约 1.38 km。
4112012484,天津滨海职业学院,主校区,天津市滨海新区塘沽庐山道1101号,天津,天津,滨海新区,39.029284,117.643381,unknown,unknown,,,,Naptie cn-university-geocoder + DaoSword China-Education-Data + ZsTs119/pg7go Baidu POI 数据集,https://github.com/Naptie/cn-university-geocoder,2026-04-21,high,百度 POI 精确匹配，坐标偏差约 5.01 km。
4112012487,天津工程职业技术学院,主校区,天津市滨海新区大港幸福路51号,天津,天津,滨海新区,38.722427,117.492337,unknown,unknown,,,,Naptie cn-university-geocoder + DaoSword China-Education-Data,https://github.com/Naptie/cn-university-geocoder,2026-04-21,medium,辅源：https://github.com/jtchen2k/hcu、https://daxue.cgsop.com/ 可用于后续人工校验校区沿革与本科去向。
4112012719,天津渤海职业技术学院,主校区,天津市北辰区津榆公路508号,天津,天津,北辰区,39.071234,117.214535,unknown,unknown,,,,Naptie cn-university-geocoder + DaoSword China-Education-Data,https://github.com/Naptie/cn-university-geocoder,2026-04-21,medium,辅源：https://github.com/jtchen2k/hcu、https://daxue.cgsop.com/ 可用于后续人工校验校区沿革与本科去向。
4112012720,天津电子信息职业技术学院,主校区,天津市海河教育园区雅深路4号,天津,天津,津南区,39.007871,117.371158,unknown,unknown,,,,Naptie cn-university-geocoder + DaoSword China-Education-Data + ZsTs119/pg7go Baidu POI 数据集,https://github.com/Naptie/cn-university-geocoder,2026-04-21,high,百度 POI 精确匹配，坐标偏差约 1.38 km。
4112012721,天津机电职业技术学院,主校区,天津市海河教育园区雅观路19号,天津,天津,津南区,39.012902,117.348211,unknown,unknown,,,,Naptie cn-university-geocoder + DaoSword China-Education-Data + ZsTs119/pg7go Baidu POI 数据集,https://github.com/Naptie/cn-university-geocoder,2026-04-21,high,百度 POI 精确匹配，坐标偏差约 1.39 km。
4112012722,天津现代职业技术学院,主校区,天津市海河教育园区雅观路3号,天津,天津,津南区,39.01826,117.361887,unknown,unknown,,,,Naptie cn-university-geocoder + DaoSword China-Education-Data + ZsTs119/pg7go Baidu POI 数据集,https://github.com/Naptie/cn-university-geocoder,2026-04-21,high,百度 POI 精确匹配，坐标偏差约 1.39 km。
4112012723,天津警察学院,主校区,天津市西青区精武镇,天津,天津,西青区,,,unknown,unknown,,,,DaoSword China-Education-Data,https://github.com/DaoSword/China-Education-Data,2026-04-21,low,当前为学校级校址占位；需要后续 deep research 继续补本科生具体校区、是否大一分校和地铁距离。
4112012732,天津轻工职业技术学院,主校区,天津市海河教育园区雅观路1号,天津,天津,津南区,39.02159,117.366565,unknown,unknown,,,,Naptie cn-university-geocoder + DaoSword China-Education-Data + ZsTs119/pg7go Baidu POI 数据集,https://github.com/Naptie/cn-university-geocoder,2026-04-21,high,百度 POI 精确匹配，坐标偏差约 1.39 km。
4112012788,天津商务职业学院,海河教育园校区,天津市海河教育园区雅观路23号,天津,天津,海河教育园区,,,unknown,unknown,,,,DaoSword China-Education-Data,https://github.com/DaoSword/China-Education-Data,2026-04-21,low,此校区由 DaoSword 宽表中的标注校址补入；未在 geocoder 主结果中出现，建议后续以学校校区介绍页复核。
4112012788,天津商务职业学院,河东校区,天津市河东区六纬路82号,天津,天津,河东区,,,unknown,unknown,,,,DaoSword China-Education-Data,https://github.com/DaoSword/China-Education-Data,2026-04-21,low,此校区由 DaoSword 宽表中的标注校址补入；未在 geocoder 主结果中出现，建议后续以学校校区介绍页复核。
4112012788,天津商务职业学院,河西校区,天津市河西区白云山路,天津,天津,河西区,,,unknown,unknown,,,,DaoSword China-Education-Data,https://github.com/DaoSword/China-Education-Data,2026-04-21,low,此校区由 DaoSword 宽表中的标注校址补入；未在 geocoder 主结果中出现，建议后续以学校校区介绍页复核。
4112012788,天津商务职业学院,主校区,天津市津南区雅观路23号,天津,天津,津南区,39.009553,117.339826,unknown,unknown,,,,Naptie cn-university-geocoder + ZsTs119/pg7go Baidu POI 数据集,https://github.com/Naptie/cn-university-geocoder,2026-04-21,medium,百度 POI 精确匹配，坐标偏差约 1.38 km。
4112012803,天津国土资源和房屋职业学院,主校区,天津市滨海新区大港学苑路600号,天津,天津,滨海新区,38.867827,117.447113,unknown,unknown,,,,Naptie cn-university-geocoder + DaoSword China-Education-Data + ZsTs119/pg7go Baidu POI 数据集,https://github.com/Naptie/cn-university-geocoder,2026-04-21,high,百度 POI 精确匹配，坐标偏差约 1.37 km。
4112012880,天津医学高等专科学校,主校区,天津市河西区柳林路14号,天津,天津,河西区,39.072977,117.281237,unknown,unknown,,,,Naptie cn-university-geocoder + DaoSword China-Education-Data + ZsTs119/pg7go Baidu POI 数据集,https://github.com/Naptie/cn-university-geocoder,2026-04-21,high,百度 POI 精确匹配，坐标偏差约 1.34 km。
4112012881,天津开发区职业技术学院,主校区,,天津,天津,,39.108932,117.216593,unknown,unknown,,,,Naptie cn-university-geocoder,https://github.com/Naptie/cn-university-geocoder,2026-04-21,low,暂仅保留单校址占位，后续需补官方校区页。
4112012882,天津艺术职业学院,主校区,河东区娄山道27号,天津,天津,河东区,39.091468,117.274333,unknown,unknown,,,,Naptie cn-university-geocoder + ZsTs119/pg7go Baidu POI 数据集,https://github.com/Naptie/cn-university-geocoder,2026-04-21,medium,百度 POI 精确匹配，坐标偏差约 0.88 km。
4112012882,天津艺术职业学院,主校区,天津市南开区卫津南路苍穹道9号,天津,天津,南开区,39.088843,117.177496,unknown,unknown,,,,Naptie cn-university-geocoder + ZsTs119/pg7go Baidu POI 数据集,https://github.com/Naptie/cn-university-geocoder,2026-04-21,medium,百度 POI 精确匹配，坐标偏差约 0.94 km。
4112012883,天津交通职业学院,主校区,天津市西青区西青道269号,天津,天津,西青区,39.148001,117.070147,unknown,unknown,,,,Naptie cn-university-geocoder + DaoSword China-Education-Data + ZsTs119/pg7go Baidu POI 数据集,https://github.com/Naptie/cn-university-geocoder,2026-04-21,high,百度 POI 精确匹配，坐标偏差约 1.36 km。
4112013658,天津外国语大学滨海外事学院,主校区,天津市滨海新区大港学府路60号,天津,天津,滨海新区,38.860909,117.46167,unknown,unknown,,,,Naptie cn-university-geocoder + DaoSword China-Education-Data,https://github.com/Naptie/cn-university-geocoder,2026-04-21,medium,辅源：https://github.com/jtchen2k/hcu、https://daxue.cgsop.com/ 可用于后续人工校验校区沿革与本科去向。
4112013659,天津传媒学院,主校区,天津市蓟州区盘山大道68号,天津,天津,蓟州区,40.044048,117.262895,unknown,unknown,,,,Naptie cn-university-geocoder + DaoSword China-Education-Data,https://github.com/Naptie/cn-university-geocoder,2026-04-21,medium,辅源：https://github.com/jtchen2k/hcu、https://daxue.cgsop.com/ 可用于后续人工校验校区沿革与本科去向。
4112013660,天津商业大学宝德学院,主校区,天津市西青区津静路28号,天津,天津,西青区,39.09069,117.086519,unknown,unknown,,,,Naptie cn-university-geocoder + DaoSword China-Education-Data + ZsTs119/pg7go Baidu POI 数据集,https://github.com/Naptie/cn-university-geocoder,2026-04-21,high,百度 POI 精确匹配，坐标偏差约 1.37 km。
4112013661,天津医科大学临床医学院,主校区,天津市大港区学苑路167号,天津,天津,滨海新区,38.865967,117.457143,unknown,unknown,,,,Naptie cn-university-geocoder + DaoSword China-Education-Data + ZsTs119/pg7go Baidu POI 数据集,https://github.com/Naptie/cn-university-geocoder,2026-04-21,high,百度 POI 精确匹配，坐标偏差约 1.37 km。
4112013663,南开大学滨海学院,主校区,天津市大港区学府路634号,天津,天津,滨海新区,38.861253,117.44311,unknown,unknown,,,,Naptie cn-university-geocoder + DaoSword China-Education-Data + ZsTs119/pg7go Baidu POI 数据集,https://github.com/Naptie/cn-university-geocoder,2026-04-21,high,百度 POI 精确匹配，坐标偏差约 1.36 km。
4112013700,天津工业职业学院,主校区,天津市北辰区学海道38号,天津,天津,北辰区,39.258087,117.108364,unknown,unknown,,,,Naptie cn-university-geocoder + DaoSword China-Education-Data + ZsTs119/pg7go Baidu POI 数据集,https://github.com/Naptie/cn-university-geocoder,2026-04-21,high,百度 POI 精确匹配，坐标偏差约 1.39 km。
4112013701,天津石油职业技术学院,主校区,天津市团泊洼,天津,天津,静海区,38.842023,117.212327,unknown,unknown,,,,Naptie cn-university-geocoder + DaoSword China-Education-Data + ZsTs119/pg7go Baidu POI 数据集,https://github.com/Naptie/cn-university-geocoder,2026-04-21,high,百度 POI 精确匹配，坐标偏差约 1.34 km。
4112013702,天津城市职业学院,主校区,天津市河北区真理道27号,天津,天津,河东区,39.148158,117.230825,unknown,unknown,,,,Naptie cn-university-geocoder + DaoSword China-Education-Data + ZsTs119/pg7go Baidu POI 数据集,https://github.com/Naptie/cn-university-geocoder,2026-04-21,high,百度 POI 精确匹配，坐标偏差约 1.37 km。
4112013863,天津铁道职业技术学院,主校区,天津市河北区建昌道21号,天津,天津,河北区,39.171607,117.213866,unknown,unknown,,,,Naptie cn-university-geocoder + DaoSword China-Education-Data + ZsTs119/pg7go Baidu POI 数据集,https://github.com/Naptie/cn-university-geocoder,2026-04-21,high,百度 POI 精确匹配，坐标偏差约 1.36 km。
4112013896,天津师范大学津沽学院,主校区,天津市西青区宾水西道393号天津师范大学主校区(近华苑新城),天津,天津,西青区,39.054172,117.117874,unknown,unknown,,,,Naptie cn-university-geocoder + ZsTs119/pg7go Baidu POI 数据集,https://github.com/Naptie/cn-university-geocoder,2026-04-21,medium,百度 POI 精确匹配，坐标偏差约 1.38 km。
4112013897,天津理工大学中环信息学院,主校区,天津市西青区杨柳青柳口路99号,天津,天津,西青区,39.126777,117.019217,unknown,unknown,,,,Naptie cn-university-geocoder + DaoSword China-Education-Data,https://github.com/Naptie/cn-university-geocoder,2026-04-21,medium,辅源：https://github.com/jtchen2k/hcu、https://daxue.cgsop.com/ 可用于后续人工校验校区沿革与本科去向。
4112013898,北京科技大学天津学院,主校区,天津市宝坻区京津新城珠江北环东路1号,天津,天津,宝坻区,39.544199,117.389297,unknown,unknown,,,,Naptie cn-university-geocoder + DaoSword China-Education-Data + ZsTs119/pg7go Baidu POI 数据集,https://github.com/Naptie/cn-university-geocoder,2026-04-21,high,百度 POI 精确匹配，坐标偏差约 1.39 km。
4112013911,天津工艺美术职业学院,革新道校区,天津市河北区红星路革新道10号,天津,天津,河北区,,,unknown,unknown,,,,DaoSword China-Education-Data,https://github.com/DaoSword/China-Education-Data,2026-04-21,low,此校区由 DaoSword 宽表中的标注校址补入；未在 geocoder 主结果中出现，建议后续以学校校区介绍页复核。
4112013911,天津工艺美术职业学院,建昌道校区,天津市河北区建昌道41号,天津,天津,河北区,39.180184,117.229989,unknown,unknown,,,,DaoSword China-Education-Data + ZsTs119/pg7go Baidu POI 数据集,https://github.com/DaoSword/China-Education-Data,2026-04-21,low,此校区由 DaoSword 宽表中的标注校址补入；未在 geocoder 主结果中出现，建议后续以学校校区介绍页复核。
4112014020,天津城市建设管理职业技术学院,主校区,天津市北辰区龙泉道2889号,天津,天津,北辰区,39.191056,117.102341,unknown,unknown,,,,Naptie cn-university-geocoder + DaoSword China-Education-Data + ZsTs119/pg7go Baidu POI 数据集,https://github.com/Naptie/cn-university-geocoder,2026-04-21,high,百度 POI 精确匹配，坐标偏差约 1.38 km。
4112014021,天津生物工程职业技术学院,主校区,天津市东丽区经济技术开发区西区南大街175号,天津,天津,东丽区,39.073361,117.54291,unknown,unknown,,,,Naptie cn-university-geocoder + ZsTs119/pg7go Baidu POI 数据集,https://github.com/Naptie/cn-university-geocoder,2026-04-21,medium,百度 POI 精确匹配，坐标偏差约 0.94 km。
4112014022,天津海运职业学院,主校区,天津市津南区海河教育园区雅深路8号,天津,天津,津南区,39.001617,117.358455,unknown,unknown,,,,Naptie cn-university-geocoder + DaoSword China-Education-Data + ZsTs119/pg7go Baidu POI 数据集,https://github.com/Naptie/cn-university-geocoder,2026-04-21,high,百度 POI 精确匹配，坐标偏差约 1.39 km。
4112014038,天津仁爱学院,主校区,天津市静海区团泊新城博学苑,天津,天津,静海区,38.884396,117.150508,unknown,unknown,,,,Naptie cn-university-geocoder + DaoSword China-Education-Data,https://github.com/Naptie/cn-university-geocoder,2026-04-21,medium,辅源：https://github.com/jtchen2k/hcu、https://daxue.cgsop.com/ 可用于后续人工校验校区沿革与本科去向。
4112014087,天津财经大学珠江学院,主校区,天津市宝坻区京津新城珠江北环东路2号,天津,天津,宝坻区,39.550046,117.399374,unknown,unknown,,,,Naptie cn-university-geocoder + DaoSword China-Education-Data + ZsTs119/pg7go Baidu POI 数据集,https://github.com/Naptie/cn-university-geocoder,2026-04-21,high,百度 POI 精确匹配，坐标偏差约 1.38 km。
4112014102,天津广播影视职业学院,主校区,天津市西青区东姜井凯苑路148号,天津,天津,西青区,39.119434,117.107733,unknown,unknown,,,,Naptie cn-university-geocoder + DaoSword China-Education-Data,https://github.com/Naptie/cn-university-geocoder,2026-04-21,medium,辅源：https://github.com/jtchen2k/hcu、https://daxue.cgsop.com/ 可用于后续人工校验校区沿革与本科去向。
4112014599,天津体育职业学院,主校区,天津市静海区团泊新城西区团泊大道西侧、北华路北侧,天津,天津,静海区,38.962812,117.05819,unknown,unknown,,,,Naptie cn-university-geocoder + DaoSword China-Education-Data + ZsTs119/pg7go Baidu POI 数据集,https://github.com/Naptie/cn-university-geocoder,2026-04-21,high,百度 POI 精确匹配，坐标偏差约 2.55 km。
4112014600,天津滨海汽车工程职业学院,主校区,天津市津南区葛沽镇创新二路36号,天津,天津,津南区,38.987438,117.467037,unknown,unknown,,,,Naptie cn-university-geocoder + DaoSword China-Education-Data,https://github.com/Naptie/cn-university-geocoder,2026-04-21,medium,辅源：https://github.com/jtchen2k/hcu、https://daxue.cgsop.com/ 可用于后续人工校验校区沿革与本科去向。
4113010075,河北大学,校本部,河北省保定市五四东路180号,河北,保定,,38.87102,115.517374,unknown,unknown,,,,Naptie cn-university-geocoder + DaoSword China-Education-Data,https://github.com/Naptie/cn-university-geocoder,2026-04-21,high,校区地址与 DaoSword 宽表中的标注校区名一致。
4113010075,河北大学,新校区,河北省保定市七一东路2666号,河北,保定,莲池区,38.881669,115.567126,unknown,unknown,,,,Naptie cn-university-geocoder + DaoSword China-Education-Data + ZsTs119/pg7go Baidu POI 数据集,https://github.com/Naptie/cn-university-geocoder,2026-04-21,high,校区地址与 DaoSword 宽表中的标注校区名一致。 百度 POI 近似匹配，坐标偏差约 0.63 km。
4113010076,河北工程大学,主校区,河北省邯郸经济技术开发区太极路19号,河北,邯郸,邯郸经济技术开发区,36.617765,114.495899,unknown,unknown,,,,Naptie cn-university-geocoder + DaoSword China-Education-Data,https://github.com/Naptie/cn-university-geocoder,2026-04-21,medium,辅源：https://github.com/jtchen2k/hcu、https://daxue.cgsop.com/ 可用于后续人工校验校区沿革与本科去向。
4113010077,河北地质大学,北校区,河北省石家庄市景源街26号,河北,石家庄,新华区,38.090539,114.43496,unknown,unknown,,,,Naptie cn-university-geocoder + DaoSword China-Education-Data + ZsTs119/pg7go Baidu POI 数据集,https://github.com/Naptie/cn-university-geocoder,2026-04-21,high,校区地址与 DaoSword 宽表中的标注校区名一致。 百度 POI 近似匹配，坐标偏差约 0.82 km。
4113010077,河北地质大学,主校区,河北省石家庄市槐安东路136号,河北,石家庄,,38.024107,114.715719,unknown,unknown,,,,Naptie cn-university-geocoder + DaoSword China-Education-Data,https://github.com/Naptie/cn-university-geocoder,2026-04-21,high,校区地址与 DaoSword 宽表中的标注校区名一致。
4113010080,河北工业大学,北辰校区,天津市北辰区西平道5340号河北工业大学北辰校区附近,天津,天津,北辰区,39.23693019029195,117.05705780994154,unknown,unknown,,,,Naptie cn-university-geocoder + DaoSword China-Education-Data + ZsTs119/pg7go Baidu POI 数据集,https://github.com/Naptie/cn-university-geocoder,2026-04-21,high,百度 POI 近似匹配，坐标偏差约 0.63 km。
4113010080,河北工业大学,红桥校区,天津市红桥区丁字沽一号路8号,天津,天津,红桥区,39.178987,117.166313,unknown,unknown,,,,Naptie cn-university-geocoder + DaoSword China-Education-Data + ZsTs119/pg7go Baidu POI 数据集,https://github.com/Naptie/cn-university-geocoder,2026-04-21,high,百度 POI 近似匹配，坐标偏差约 0.86 km。
4113010081,华北理工大学,曹妃甸校区,河北省唐山市曹妃甸区渤海大道21号,河北,唐山,曹妃甸区,39.20509452786917,118.59280791534424,unknown,unknown,,,,Naptie cn-university-geocoder + DaoSword China-Education-Data + ZsTs119/pg7go Baidu POI 数据集,https://github.com/Naptie/cn-university-geocoder,2026-04-21,high,百度 POI 近似匹配，坐标偏差约 0.85 km。
4113010082,河北科技大学,主校区,河北省石家庄市裕翔街26号,河北,石家庄,,37.978091,114.509697,unknown,unknown,,,,Naptie cn-university-geocoder + DaoSword China-Education-Data,https://github.com/Naptie/cn-university-geocoder,2026-04-21,medium,辅源：https://github.com/jtchen2k/hcu、https://daxue.cgsop.com/ 可用于后续人工校验校区沿革与本科去向。
4113010084,河北建筑工程学院,主校区,河北省张家口市朝阳西大街13号,河北,张家口,,40.754632,114.891099,unknown,unknown,,,,Naptie cn-university-geocoder + DaoSword China-Education-Data,https://github.com/Naptie/cn-university-geocoder,2026-04-21,medium,辅源：https://github.com/jtchen2k/hcu、https://daxue.cgsop.com/ 可用于后续人工校验校区沿革与本科去向。
4113010085,河北水利电力学院,主校区,河北省沧州市黄河西路49号,河北,沧州,运河区,38.294684,116.799127,unknown,unknown,,,,Naptie cn-university-geocoder + DaoSword China-Education-Data + ZsTs119/pg7go Baidu POI 数据集,https://github.com/Naptie/cn-university-geocoder,2026-04-21,high,百度 POI 精确匹配，坐标偏差约 1.30 km。
4113010086,河北农业大学,主校区,河北省保定市灵雨寺街289号,河北,保定,莲池区,38.826221,115.43957,unknown,unknown,,,,Naptie cn-university-geocoder + DaoSword China-Education-Data + ZsTs119/pg7go Baidu POI 数据集,https://github.com/Naptie/cn-university-geocoder,2026-04-21,high,百度 POI 精确匹配，坐标偏差约 5.46 km。
4113010089,河北医科大学,建华校区,河北省石家庄市建华南大街309号,河北,石家庄,裕华区,38.016034,114.549521,unknown,unknown,,,,Naptie cn-university-geocoder + DaoSword China-Education-Data + ZsTs119/pg7go Baidu POI 数据集,https://github.com/Naptie/cn-university-geocoder,2026-04-21,high,校区地址与 DaoSword 宽表中的标注校区名一致。 百度 POI 近似匹配，坐标偏差约 0.69 km。
4113010089,河北医科大学,中山校区,河北省石家庄市中山东路361号,河北,石家庄,,38.044585,114.53467,unknown,unknown,,,,Naptie cn-university-geocoder + DaoSword China-Education-Data,https://github.com/Naptie/cn-university-geocoder,2026-04-21,high,校区地址与 DaoSword 宽表中的标注校区名一致。
4113010092,河北北方学院,主校区,河北省张家口市高新区钻石南路11号,河北,张家口,张家口市高新区,40.771483,114.885196,unknown,unknown,,,,Naptie cn-university-geocoder + DaoSword China-Education-Data,https://github.com/Naptie/cn-university-geocoder,2026-04-21,medium,辅源：https://github.com/jtchen2k/hcu、https://daxue.cgsop.com/ 可用于后续人工校验校区沿革与本科去向。
4113010093,承德医学院,主校区,河北省承德市双桥区安远路,河北,承德,双桥区,41.031151,117.950887,unknown,unknown,,,,Naptie cn-university-geocoder + DaoSword China-Education-Data + ZsTs119/pg7go Baidu POI 数据集,https://github.com/Naptie/cn-university-geocoder,2026-04-21,high,百度 POI 精确匹配，坐标偏差约 1.39 km。
4113010094,河北师范大学,新校区,石家庄市裕华区南二环东路20号,河北,石家庄,裕华区,37.997626,114.520299,unknown,unknown,,,,Naptie cn-university-geocoder + DaoSword China-Education-Data + ZsTs119/pg7go Baidu POI 数据集,https://github.com/Naptie/cn-university-geocoder,2026-04-21,high,百度 POI 近似匹配，坐标偏差约 0.86 km。
4113010096,保定学院,主校区,河北省保定市七一东路3027号,河北,保定,莲池区,38.879567,115.571407,unknown,unknown,,,,Naptie cn-university-geocoder + DaoSword China-Education-Data + ZsTs119/pg7go Baidu POI 数据集,https://github.com/Naptie/cn-university-geocoder,2026-04-21,high,百度 POI 精确匹配，坐标偏差约 1.46 km。
4113010098,河北民族师范学院,主校区,河北省承德市高新区学院路西2号,河北,承德,双桥区,40.890857,117.952326,unknown,unknown,,,,Naptie cn-university-geocoder + DaoSword China-Education-Data + ZsTs119/pg7go Baidu POI 数据集,https://github.com/Naptie/cn-university-geocoder,2026-04-21,high,百度 POI 精确匹配，坐标偏差约 1.38 km。
4113010099,唐山师范学院,校本部大学道校区,河北省唐山市建设北路156号,河北,唐山,,39.674992,118.174052,unknown,unknown,,,,Naptie cn-university-geocoder + DaoSword China-Education-Data,https://github.com/Naptie/cn-university-geocoder,2026-04-21,high,校区地址与 DaoSword 宽表中的标注校区名一致。
4113010099,唐山师范学院,校本部学院路校区,河北省唐山市学院路41号,河北,唐山,,39.637209,118.159669,unknown,unknown,,,,Naptie cn-university-geocoder + DaoSword China-Education-Data,https://github.com/Naptie/cn-university-geocoder,2026-04-21,high,校区地址与 DaoSword 宽表中的标注校区名一致。
4113010100,廊坊师范学院,东校区,河北省廊坊市爱民西道100号,河北,廊坊,安次区,39.530875,116.685937,unknown,unknown,,,,DaoSword China-Education-Data + ZsTs119/pg7go Baidu POI 数据集,https://github.com/DaoSword/China-Education-Data,2026-04-21,low,此校区由 DaoSword 宽表中的标注校址补入；未在 geocoder 主结果中出现，建议后续以学校校区介绍页复核。
4113010100,廊坊师范学院,廊坊校区,廊坊市安次区学院路与英华道交叉口西北150米,河北,廊坊,安次区,39.524969,116.673376,unknown,unknown,,,,Naptie cn-university-geocoder + ZsTs119/pg7go Baidu POI 数据集,https://github.com/Naptie/cn-university-geocoder,2026-04-21,medium,百度 POI 近似匹配，坐标偏差约 0.79 km。
4113010100,廊坊师范学院,西校区,河北省廊坊市固安县城东,河北,廊坊,固安县,39.427588,116.440861,unknown,unknown,,,,DaoSword China-Education-Data + ZsTs119/pg7go Baidu POI 数据集,https://github.com/DaoSword/China-Education-Data,2026-04-21,low,此校区由 DaoSword 宽表中的标注校址补入；未在 geocoder 主结果中出现，建议后续以学校校区介绍页复核。
4113010101,衡水学院,主校区,河北省衡水市和平西路1088号,河北,衡水,桃城区,37.741806,115.655787,unknown,unknown,,,,Naptie cn-university-geocoder + DaoSword China-Education-Data + ZsTs119/pg7go Baidu POI 数据集,https://github.com/Naptie/cn-university-geocoder,2026-04-21,high,百度 POI 精确匹配，坐标偏差约 1.32 km。
4113010102,石家庄学院,北校区,河北省石家庄市高新技术产业开发区长江大道6号,河北,石家庄,高新技术产业开发区,38.043675,114.624714,unknown,unknown,,,,Naptie cn-university-geocoder + DaoSword China-Education-Data,https://github.com/Naptie/cn-university-geocoder,2026-04-21,high,校区地址与 DaoSword 宽表中的标注校区名一致。
4113010102,石家庄学院,南校区,河北省石家庄市高新技术产业开发区珠峰大街288号,河北,石家庄,高新技术产业开发区,38.019878,114.602043,unknown,unknown,,,,Naptie cn-university-geocoder + DaoSword China-Education-Data,https://github.com/Naptie/cn-university-geocoder,2026-04-21,high,校区地址与 DaoSword 宽表中的标注校区名一致。
4113010103,邯郸学院,邯郸学院本部,河北省邯郸市学院北路530号,河北,邯郸,邯山区,36.576609,114.509244,unknown,unknown,,,,Naptie cn-university-geocoder + DaoSword China-Education-Data + ZsTs119/pg7go Baidu POI 数据集,https://github.com/Naptie/cn-university-geocoder,2026-04-21,high,校区地址与 DaoSword 宽表中的标注校区名一致。 百度 POI 近似匹配，坐标偏差约 1.04 km。
4113010103,邯郸学院,邯郸学院大名分院,河北省邯郸市大名县京府大街43号,河北,邯郸,邯郸市大名县,36.284698,115.15038,unknown,unknown,,,,Naptie cn-university-geocoder + DaoSword China-Education-Data,https://github.com/Naptie/cn-university-geocoder,2026-04-21,high,校区地址与 DaoSword 宽表中的标注校区名一致。
4113010104,邢台学院,机电工程学院校区,河北省邢台市桥西区泉北西大街1169号,河北,邢台,邢台市桥西区,37.09733,114.462209,unknown,unknown,,,,Naptie cn-university-geocoder + DaoSword China-Education-Data,https://github.com/Naptie/cn-university-geocoder,2026-04-21,high,校区地址与 DaoSword 宽表中的标注校区名一致。
4113010104,邢台学院,主校区,河北省邢台市桥东区泉北东大街88号,河北,邢台,桥东区,37.088626,114.509769,unknown,unknown,,,,Naptie cn-university-geocoder + DaoSword China-Education-Data + ZsTs119/pg7go Baidu POI 数据集,https://github.com/Naptie/cn-university-geocoder,2026-04-21,high,校区地址与 DaoSword 宽表中的标注校区名一致。 百度 POI 精确匹配，坐标偏差约 0.76 km。
4113010105,沧州师范学院,主校区,河北省沧州市运河区青海南大道16号,河北,沧州,运河区,38.284516,116.777898,unknown,unknown,,,,Naptie cn-university-geocoder + DaoSword China-Education-Data + ZsTs119/pg7go Baidu POI 数据集,https://github.com/Naptie/cn-university-geocoder,2026-04-21,high,百度 POI 精确匹配，坐标偏差约 1.31 km。
4113010107,石家庄铁道大学,龙山校区,河北省石家庄市元氏县姬村镇龙山路1号,河北,石家庄,石家庄市元氏县,,,unknown,unknown,,,,DaoSword China-Education-Data,https://github.com/DaoSword/China-Education-Data,2026-04-21,low,此校区由 DaoSword 宽表中的标注校址补入；未在 geocoder 主结果中出现，建议后续以学校校区介绍页复核。
4113010107,石家庄铁道大学,主校区,河北省石家庄市北二环东路17号,河北,石家庄,长安区,38.08038,114.503606,unknown,unknown,,,,Naptie cn-university-geocoder + DaoSword China-Education-Data + ZsTs119/pg7go Baidu POI 数据集,https://github.com/Naptie/cn-university-geocoder,2026-04-21,high,校区地址与 DaoSword 宽表中的标注校区名一致。 百度 POI 精确匹配，坐标偏差约 1.42 km。
4113010216,燕山大学,主校区,河北省秦皇岛市海港区河北大街438号,河北,秦皇岛,秦皇岛市海港区,39.909704,119.518201,unknown,unknown,,,,Naptie cn-university-geocoder + DaoSword China-Education-Data,https://github.com/Naptie/cn-university-geocoder,2026-04-21,medium,辅源：https://github.com/jtchen2k/hcu、https://daxue.cgsop.com/ 可用于后续人工校验校区沿革与本科去向。
4113010798,河北科技师范学院,昌黎校区,河北省秦皇岛市昌黎县城关镇四街河东113号,河北,秦皇岛,秦皇岛市昌黎县,39.705136,119.174207,unknown,unknown,,,,Naptie cn-university-geocoder + DaoSword China-Education-Data,https://github.com/Naptie/cn-university-geocoder,2026-04-21,high,校区地址与 DaoSword 宽表中的标注校区名一致。
4113010798,河北科技师范学院,秦皇岛校区,河北省秦皇岛市海港区河北大街西段360号,河北,秦皇岛,海港区,39.911481,119.548659,unknown,unknown,,,,Naptie cn-university-geocoder + DaoSword China-Education-Data + ZsTs119/pg7go Baidu POI 数据集,https://github.com/Naptie/cn-university-geocoder,2026-04-21,high,校区地址与 DaoSword 宽表中的标注校区名一致。 百度 POI 近似匹配，坐标偏差约 0.91 km。
4113011033,唐山学院,主校区,河北省唐山市大学西道9号,河北,唐山,路北区,39.61951,118.213039,unknown,unknown,,,,Naptie cn-university-geocoder + DaoSword China-Education-Data + ZsTs119/pg7go Baidu POI 数据集,https://github.com/Naptie/cn-university-geocoder,2026-04-21,high,百度 POI 精确匹配，坐标偏差约 3.12 km。
4113011034,邯郸职业技术学院,主校区,河北省邯郸市渚河路141号,河北,邯郸,邯山区,36.582448,114.505599,unknown,unknown,,,,Naptie cn-university-geocoder + DaoSword China-Education-Data + ZsTs119/pg7go Baidu POI 数据集,https://github.com/Naptie/cn-university-geocoder,2026-04-21,high,百度 POI 精确匹配，坐标偏差约 1.29 km。
4113011104,华北科技学院,主校区,北京市东燕郊开发区学院大街467号,河北,廊坊,三河市,39.955792,116.797834,unknown,unknown,,,,Naptie cn-university-geocoder + DaoSword China-Education-Data + ZsTs119/pg7go Baidu POI 数据集,https://github.com/Naptie/cn-university-geocoder,2026-04-21,high,百度 POI 精确匹配，坐标偏差约 1.32 km。
4113011105,中国人民警察大学,广州校区,广东省广州市天河区奥体南路399号,河北,廊坊,广州市天河区,,,unknown,unknown,,,,DaoSword China-Education-Data,https://github.com/DaoSword/China-Education-Data,2026-04-21,low,此校区由 DaoSword 宽表中的标注校址补入；未在 geocoder 主结果中出现，建议后续以学校校区介绍页复核。
4113011105,中国人民警察大学,廊坊校区,河北省廊坊市安次区西昌路220号,河北,廊坊,廊坊市安次区,,,unknown,unknown,,,,DaoSword China-Education-Data,https://github.com/DaoSword/China-Education-Data,2026-04-21,low,此校区由 DaoSword 宽表中的标注校址补入；未在 geocoder 主结果中出现，建议后续以学校校区介绍页复核。
4113011105,中国人民警察大学,主校区,河北省廊坊市安次区西昌路,河北,廊坊,安次区,39.530651,116.656822,unknown,unknown,,,,Naptie cn-university-geocoder + ZsTs119/pg7go Baidu POI 数据集,https://github.com/Naptie/cn-university-geocoder,2026-04-21,medium,百度 POI 精确匹配，坐标偏差约 1.31 km。
4113011236,河北体育学院,主校区,河北省石家庄市学府路82号,河北,石家庄,,38.040553,114.531855,unknown,unknown,,,,Naptie cn-university-geocoder + DaoSword China-Education-Data,https://github.com/Naptie/cn-university-geocoder,2026-04-21,medium,辅源：https://github.com/jtchen2k/hcu、https://daxue.cgsop.com/ 可用于后续人工校验校区沿革与本科去向。
4113011238,石家庄职业技术学院,主校区,河北省石家庄市中山西路长兴街12号,河北,石家庄,桥西区,38.046123,114.400202,unknown,unknown,,,,Naptie cn-university-geocoder + DaoSword China-Education-Data + ZsTs119/pg7go Baidu POI 数据集,https://github.com/Naptie/cn-university-geocoder,2026-04-21,high,百度 POI 精确匹配，坐标偏差约 1.35 km。
4113011420,河北金融学院,主校区,河北省保定市恒祥北大街3188号,河北,保定,莲池区,38.918632,115.492885,unknown,unknown,,,,Naptie cn-university-geocoder + DaoSword China-Education-Data + ZsTs119/pg7go Baidu POI 数据集,https://github.com/Naptie/cn-university-geocoder,2026-04-21,high,百度 POI 精确匹配，坐标偏差约 1.32 km。
4113011423,张家口职业技术学院,主校区,河北省张家口市高新区马路东59号,河北,张家口,桥东区,40.73021,114.910615,unknown,unknown,,,,Naptie cn-university-geocoder + DaoSword China-Education-Data + ZsTs119/pg7go Baidu POI 数据集,https://github.com/Naptie/cn-university-geocoder,2026-04-21,high,百度 POI 精确匹配，坐标偏差约 1.33 km。
4113011629,北华航天工业学院,主校区,河北省廊坊市爱民东道133号,河北,廊坊,,39.526699,116.726651,unknown,unknown,,,,Naptie cn-university-geocoder + DaoSword China-Education-Data,https://github.com/Naptie/cn-university-geocoder,2026-04-21,medium,辅源：https://github.com/jtchen2k/hcu、https://daxue.cgsop.com/ 可用于后续人工校验校区沿革与本科去向。
4113011775,防灾科技学院,主校区,河北省三河市燕郊高新区学院街465号,河北,廊坊,三河市,39.954015,116.794072,unknown,unknown,,,,Naptie cn-university-geocoder + DaoSword China-Education-Data + ZsTs119/pg7go Baidu POI 数据集,https://github.com/Naptie/cn-university-geocoder,2026-04-21,high,百度 POI 精确匹配，坐标偏差约 1.33 km。
4113011832,河北经贸大学,主校区,河北省石家庄市学府路47号,河北,石家庄,,38.007367,114.451105,unknown,unknown,,,,Naptie cn-university-geocoder + DaoSword China-Education-Data,https://github.com/Naptie/cn-university-geocoder,2026-04-21,medium,辅源：https://github.com/jtchen2k/hcu、https://daxue.cgsop.com/ 可用于后续人工校验校区沿革与本科去向。
4113011903,中央司法警官学院,主校区,河北省保定市七一中路103号,河北,保定,,38.8805,115.508536,unknown,unknown,,,,Naptie cn-university-geocoder + DaoSword China-Education-Data,https://github.com/Naptie/cn-university-geocoder,2026-04-21,medium,辅源：https://github.com/jtchen2k/hcu、https://daxue.cgsop.com/ 可用于后续人工校验校区沿革与本科去向。
4113012352,河北软件职业技术学院,主校区,河北省保定市东风东路999号,河北,保定,,38.867046,115.538391,unknown,unknown,,,,Naptie cn-university-geocoder + DaoSword China-Education-Data,https://github.com/Naptie/cn-university-geocoder,2026-04-21,medium,辅源：https://github.com/jtchen2k/hcu、https://daxue.cgsop.com/ 可用于后续人工校验校区沿革与本科去向。
4113012367,河北石油职业技术学院,主校区,河北省廊坊市爱民西道90号,河北,廊坊,安次区,39.530335,116.68257,unknown,unknown,,,,DaoSword China-Education-Data + ZsTs119/pg7go Baidu POI 数据集,https://github.com/DaoSword/China-Education-Data,2026-04-21,medium,当前为学校级校址占位；需要后续 deep research 继续补本科生具体校区、是否大一分校和地铁距离。
4113012389,河北建材职业技术学院,主校区,河北省秦皇岛市海港区文育路8号,河北,秦皇岛,秦皇岛市海港区,39.912428,119.555907,unknown,unknown,,,,Naptie cn-university-geocoder + DaoSword China-Education-Data,https://github.com/Naptie/cn-university-geocoder,2026-04-21,medium,辅源：https://github.com/jtchen2k/hcu、https://daxue.cgsop.com/ 可用于后续人工校验校区沿革与本科去向。
4113012408,河北政法职业学院,主校区,河北省石家庄市新华区友谊北大街569号,河北,石家庄,石家庄市新华区,38.127826,114.494373,unknown,unknown,,,,Naptie cn-university-geocoder + DaoSword China-Education-Data,https://github.com/Naptie/cn-university-geocoder,2026-04-21,medium,辅源：https://github.com/jtchen2k/hcu、https://daxue.cgsop.com/ 可用于后续人工校验校区沿革与本科去向。
4113012415,沧州职业技术学院,主校区,河北省沧州市运河区九河西路,河北,沧州,运河区,38.281662,116.817472,unknown,unknown,,,,Naptie cn-university-geocoder + DaoSword China-Education-Data + ZsTs119/pg7go Baidu POI 数据集,https://github.com/Naptie/cn-university-geocoder,2026-04-21,high,百度 POI 精确匹配，坐标偏差约 1.29 km。
4113012418,河北能源职业技术学院,主校区,河北省唐山市北新西道88号,河北,唐山,路北区,39.6439,118.185556,unknown,unknown,,,,Naptie cn-university-geocoder + DaoSword China-Education-Data + ZsTs119/pg7go Baidu POI 数据集,https://github.com/Naptie/cn-university-geocoder,2026-04-21,high,百度 POI 精确匹配，坐标偏差约 4.68 km。
4113012543,保定职业技术学院,主校区,河北省保定市朝阳南大街613号,河北,保定,竞秀区,38.880152,115.512991,unknown,unknown,,,,Naptie cn-university-geocoder + DaoSword China-Education-Data + ZsTs119/pg7go Baidu POI 数据集,https://github.com/Naptie/cn-university-geocoder,2026-04-21,high,百度 POI 精确匹配，坐标偏差约 3.50 km。
4113012773,秦皇岛职业技术学院,主校区,河北省秦皇岛市北戴河区海滨联峰北路90号,河北,秦皇岛,北戴河区,39.838145,119.475536,unknown,unknown,,,,Naptie cn-university-geocoder + DaoSword China-Education-Data + ZsTs119/pg7go Baidu POI 数据集,https://github.com/Naptie/cn-university-geocoder,2026-04-21,high,百度 POI 精确匹配，坐标偏差约 1.35 km。
4113012782,石家庄工程职业学院,主校区,河北省石家庄市新华区学府路169号,河北,石家庄,鹿泉区,38.170192,114.433097,unknown,unknown,,,,Naptie cn-university-geocoder + DaoSword China-Education-Data + ZsTs119/pg7go Baidu POI 数据集,https://github.com/Naptie/cn-university-geocoder,2026-04-21,high,百度 POI 精确匹配，坐标偏差约 1.34 km。
4113012783,石家庄城市经济职业学院,主校区,河北省石家庄市经济技术开发区岗上文明路12号,河北,石家庄,经济技术开发区,37.759899,114.747651,unknown,unknown,,,,Naptie cn-university-geocoder + DaoSword China-Education-Data,https://github.com/Naptie/cn-university-geocoder,2026-04-21,medium,辅源：https://github.com/jtchen2k/hcu、https://daxue.cgsop.com/ 可用于后续人工校验校区沿革与本科去向。
4113012784,河北传媒学院,主校区,河北省石家庄市栾城区兴安大街109号,河北,石家庄,石家庄市栾城区,37.906282,114.658371,unknown,unknown,,,,Naptie cn-university-geocoder + DaoSword China-Education-Data,https://github.com/Naptie/cn-university-geocoder,2026-04-21,medium,辅源：https://github.com/jtchen2k/hcu、https://daxue.cgsop.com/ 可用于后续人工校验校区沿革与本科去向。
4113012785,唐山职业技术学院,南湖校区,河北省唐山市丰南区正泰街29号,河北,唐山,唐山市丰南区,39.585253,118.091004,unknown,unknown,,,,Naptie cn-university-geocoder + DaoSword China-Education-Data,https://github.com/Naptie/cn-university-geocoder,2026-04-21,high,校区地址与 DaoSword 宽表中的标注校区名一致。
4113012785,唐山职业技术学院,新华道校区,河北省唐山市路北区新华西道120号,河北,唐山,唐山市路北区,39.625386,118.133765,unknown,unknown,,,,Naptie cn-university-geocoder + DaoSword China-Education-Data,https://github.com/Naptie/cn-university-geocoder,2026-04-21,high,校区地址与 DaoSword 宽表中的标注校区名一致。
4113012786,衡水职业技术学院,主校区,河北省衡水市桃城区红旗大街2373号,河北,衡水,桃城区,37.698318,115.675161,unknown,unknown,,,,Naptie cn-university-geocoder + DaoSword China-Education-Data + ZsTs119/pg7go Baidu POI 数据集,https://github.com/Naptie/cn-university-geocoder,2026-04-21,high,百度 POI 精确匹配，坐标偏差约 1.33 km。
4113012787,唐山工业职业技术大学,主校区,河北省唐山市曹妃甸区曹妃甸新城渤海大道25号,河北,唐山,唐山市曹妃甸区,,,unknown,unknown,,,,DaoSword China-Education-Data,https://github.com/DaoSword/China-Education-Data,2026-04-21,low,当前为学校级校址占位；需要后续 deep research 继续补本科生具体校区、是否大一分校和地铁距离。
4113012796,河北工程技术学院,主校区,河北省石家庄市桥西区宫北路11号,河北,石家庄,桥西区,37.995741,114.456314,unknown,unknown,,,,Naptie cn-university-geocoder + DaoSword China-Education-Data + ZsTs119/pg7go Baidu POI 数据集,https://github.com/Naptie/cn-university-geocoder,2026-04-21,high,百度 POI 精确匹配，坐标偏差约 1.76 km。
4113012884,邢台医学院,主校区,河北省邢台市桥西区钢铁北路618号,河北,邢台,邢台市桥西区,,,unknown,unknown,,,,DaoSword China-Education-Data,https://github.com/DaoSword/China-Education-Data,2026-04-21,low,当前为学校级校址占位；需要后续 deep research 继续补本科生具体校区、是否大一分校和地铁距离。
4113012885,河北艺术职业学院,主校区,河北省石家庄市长安区青园街149号,河北,石家庄,石家庄市长安区,38.036881,114.512634,unknown,unknown,,,,Naptie cn-university-geocoder + DaoSword China-Education-Data,https://github.com/Naptie/cn-university-geocoder,2026-04-21,medium,辅源：https://github.com/jtchen2k/hcu、https://daxue.cgsop.com/ 可用于后续人工校验校区沿革与本科去向。
4113012887,河北旅游职业学院,主校区,河北省承德市高教园区,河北,承德,承德市高教园区,40.900727,117.947266,unknown,unknown,,,,Naptie cn-university-geocoder + DaoSword China-Education-Data,https://github.com/Naptie/cn-university-geocoder,2026-04-21,medium,辅源：https://github.com/jtchen2k/hcu、https://daxue.cgsop.com/ 可用于后续人工校验校区沿革与本科去向。
4113013070,石家庄财经职业学院,主校区,河北省石家庄市新华区学府路236号,河北,石家庄,石家庄市新华区,38.113515,114.277026,unknown,unknown,,,,Naptie cn-university-geocoder + DaoSword China-Education-Data,https://github.com/Naptie/cn-university-geocoder,2026-04-21,medium,辅源：https://github.com/jtchen2k/hcu、https://daxue.cgsop.com/ 可用于后续人工校验校区沿革与本科去向。
4113013071,河北交通职业技术学院,西校区,河北省石家庄市友谊南大街258号,河北,石家庄,桥西区,38.012938,114.451877,unknown,unknown,,,,Naptie cn-university-geocoder + DaoSword China-Education-Data + ZsTs119/pg7go Baidu POI 数据集,https://github.com/Naptie/cn-university-geocoder,2026-04-21,high,校区地址与 DaoSword 宽表中的标注校区名一致。 百度 POI 近似匹配，坐标偏差约 0.88 km。
4113013071,河北交通职业技术学院,主校区,河北省石家庄市珠江大道219号,河北,石家庄,裕华区,38.026277,114.643208,unknown,unknown,,,,Naptie cn-university-geocoder + DaoSword China-Education-Data + ZsTs119/pg7go Baidu POI 数据集,https://github.com/Naptie/cn-university-geocoder,2026-04-21,high,校区地址与 DaoSword 宽表中的标注校区名一致。 百度 POI 精确匹配，坐标偏差约 0.92 km。
4113013072,河北化工医药职业技术学院,主校区,河北省石家庄市裕华区方兴路88号,河北,石家庄,裕华区,37.989013,114.597571,unknown,unknown,,,,Naptie cn-university-geocoder + DaoSword China-Education-Data + ZsTs119/pg7go Baidu POI 数据集,https://github.com/Naptie/cn-university-geocoder,2026-04-21,high,百度 POI 精确匹配，坐标偏差约 1.31 km。
4113013073,石家庄信息工程职业学院,东校区,河北省石家庄市藁城区天祥大街81号,河北,石家庄,石家庄市藁城区,,,unknown,unknown,,,,DaoSword China-Education-Data,https://github.com/DaoSword/China-Education-Data,2026-04-21,low,此校区由 DaoSword 宽表中的标注校址补入；未在 geocoder 主结果中出现，建议后续以学校校区介绍页复核。
4113013073,石家庄信息工程职业学院,西校区,河北省石家庄市藁城区天祥大街82号,河北,石家庄,石家庄市藁城区,,,unknown,unknown,,,,DaoSword China-Education-Data,https://github.com/DaoSword/China-Education-Data,2026-04-21,low,此校区由 DaoSword 宽表中的标注校址补入；未在 geocoder 主结果中出现，建议后续以学校校区介绍页复核。
4113013074,河北对外经贸职业学院,主校区,河北省秦皇岛市北戴河新区戴河大街6号,河北,秦皇岛,北戴河区,39.799787,119.421448,unknown,unknown,,,,Naptie cn-university-geocoder + DaoSword China-Education-Data + ZsTs119/pg7go Baidu POI 数据集,https://github.com/Naptie/cn-university-geocoder,2026-04-21,high,百度 POI 精确匹配，坐标偏差约 1.37 km。
4113013075,河北美术学院,主校区,河北省石家庄空港工业园区北环港路111号,河北,石家庄,新乐市,38.344251,114.713659,unknown,unknown,,,,Naptie cn-university-geocoder + DaoSword China-Education-Data + ZsTs119/pg7go Baidu POI 数据集,https://github.com/Naptie/cn-university-geocoder,2026-04-21,high,百度 POI 精确匹配，坐标偏差约 1.18 km。
4113013391,河北科技学院,主校区,河北省保定市南二环路1956号,河北,保定,莲池区,38.813436,115.486408,unknown,unknown,,,,Naptie cn-university-geocoder + DaoSword China-Education-Data + ZsTs119/pg7go Baidu POI 数据集,https://github.com/Naptie/cn-university-geocoder,2026-04-21,high,百度 POI 精确匹配，坐标偏差约 1.32 km。
4113013392,保定电力职业技术学院,主校区,河北省保定市乐凯南大街1278号,河北,保定,竞秀区,38.850684,115.443108,unknown,unknown,,,,Naptie cn-university-geocoder + DaoSword China-Education-Data + ZsTs119/pg7go Baidu POI 数据集,https://github.com/Naptie/cn-university-geocoder,2026-04-21,high,百度 POI 精确匹配，坐标偏差约 1.36 km。
4113013393,河北机电职业技术学院,主校区,河北省邢台市泉北西大街1169号,河北,邢台,桥西区,37.094237,114.453145,unknown,unknown,,,,Naptie cn-university-geocoder + DaoSword China-Education-Data + ZsTs119/pg7go Baidu POI 数据集,https://github.com/Naptie/cn-university-geocoder,2026-04-21,high,百度 POI 精确匹配，坐标偏差约 1.34 km。
4113013394,渤海石油职业学院,主校区,河北省华北油田地区任青路,河北,沧州,任丘市,38.718903,116.051866,unknown,unknown,,,,Naptie cn-university-geocoder + DaoSword China-Education-Data + ZsTs119/pg7go Baidu POI 数据集,https://github.com/Naptie/cn-university-geocoder,2026-04-21,high,百度 POI 精确匹配，坐标偏差约 1.34 km。
4113013395,廊坊职业技术学院,主校区,河北省廊坊市东方大学城二期居易道,河北,廊坊,,39.61439,116.737946,unknown,unknown,,,,Naptie cn-university-geocoder + DaoSword China-Education-Data,https://github.com/Naptie/cn-university-geocoder,2026-04-21,medium,辅源：https://github.com/jtchen2k/hcu、https://daxue.cgsop.com/ 可用于后续人工校验校区沿革与本科去向。
4113013396,唐山科技职业技术学院,主校区,河北省唐山市路南区警钢路68号,河北,唐山,路南区,39.596625,118.232377,unknown,unknown,,,,Naptie cn-university-geocoder + DaoSword China-Education-Data + ZsTs119/pg7go Baidu POI 数据集,https://github.com/Naptie/cn-university-geocoder,2026-04-21,high,百度 POI 精确匹配，坐标偏差约 1.34 km。
4113013397,石家庄邮电职业技术学院,东校区,河北省石家庄市翟营南大街51号,河北,石家庄,,38.018913,114.556016,unknown,unknown,,,,Naptie cn-university-geocoder + DaoSword China-Education-Data,https://github.com/Naptie/cn-university-geocoder,2026-04-21,high,校区地址与 DaoSword 宽表中的标注校区名一致。
4113013397,石家庄邮电职业技术学院,西校区,河北省石家庄市体育南大街318号,河北,石家庄,,38.018536,114.531172,unknown,unknown,,,,Naptie cn-university-geocoder + DaoSword China-Education-Data,https://github.com/Naptie/cn-university-geocoder,2026-04-21,high,校区地址与 DaoSword 宽表中的标注校区名一致。
4113013398,河北公安警察职业学院,主校区,河北省石家庄市桥西区滨河街1号,河北,石家庄,石家庄市桥西区,37.998574,114.465157,unknown,unknown,,,,Naptie cn-university-geocoder + DaoSword China-Education-Data,https://github.com/Naptie/cn-university-geocoder,2026-04-21,medium,辅源：https://github.com/jtchen2k/hcu、https://daxue.cgsop.com/ 可用于后续人工校验校区沿革与本科去向。
4113013399,石家庄工商职业学院,主校区,河北省石家庄市桥西区滨河街三号,河北,石家庄,桥西区,37.994391,114.466021,unknown,unknown,,,,Naptie cn-university-geocoder + DaoSword China-Education-Data + ZsTs119/pg7go Baidu POI 数据集,https://github.com/Naptie/cn-university-geocoder,2026-04-21,high,百度 POI 精确匹配，坐标偏差约 1.35 km。
4113013400,石家庄理工职业学院,主校区,河北省石家庄市中山西路石柏南大街石家庄理工职业学院,河北,石家庄,鹿泉区,38.051709,114.345007,unknown,unknown,,,,Naptie cn-university-geocoder + DaoSword China-Education-Data + ZsTs119/pg7go Baidu POI 数据集,https://github.com/Naptie/cn-university-geocoder,2026-04-21,high,百度 POI 精确匹配，坐标偏差约 1.36 km。
4113013402,河北外国语学院,主校区,河北省石家庄市红旗南大街汇丰西路29号,河北,石家庄,桥西区,37.995783,114.448808,unknown,unknown,,,,Naptie cn-university-geocoder + DaoSword China-Education-Data + ZsTs119/pg7go Baidu POI 数据集,https://github.com/Naptie/cn-university-geocoder,2026-04-21,high,百度 POI 精确匹配，坐标偏差约 1.35 km。
4113013403,石家庄科技信息职业学院,主校区,河北省石家庄市桥西区红旗大街南端汇学路2号,河北,石家庄,石家庄市桥西区,38.307354,114.407206,unknown,unknown,,,,Naptie cn-university-geocoder + DaoSword China-Education-Data,https://github.com/Naptie/cn-university-geocoder,2026-04-21,medium,辅源：https://github.com/jtchen2k/hcu、https://daxue.cgsop.com/ 可用于后续人工校验校区沿革与本科去向。
4113013404,河北大学工商学院,主校区,中国河北省保定市七一东路2666号,河北,保定,,,,unknown,unknown,,,,DaoSword China-Education-Data,https://github.com/DaoSword/China-Education-Data,2026-04-21,low,当前为学校级校址占位；需要后续 deep research 继续补本科生具体校区、是否大一分校和地铁距离。
4113013408,华北理工大学轻工学院,主校区,河北省唐山市丰润区南环东道99号,河北,唐山,唐山市丰润区,39.203545,118.592367,unknown,unknown,,,,Naptie cn-university-geocoder + DaoSword China-Education-Data,https://github.com/Naptie/cn-university-geocoder,2026-04-21,medium,辅源：https://github.com/jtchen2k/hcu、https://daxue.cgsop.com/ 可用于后续人工校验校区沿革与本科去向。
4113013411,河北师范大学汇华学院,主校区,河北省石家庄市红旗大街469号,河北,石家庄,桥西区,38.005568,114.457849,unknown,unknown,,,,Naptie cn-university-geocoder + DaoSword China-Education-Data + ZsTs119/pg7go Baidu POI 数据集,https://github.com/Naptie/cn-university-geocoder,2026-04-21,high,百度 POI 精确匹配，坐标偏差约 1.35 km。
4113013414,河北经贸大学经济管理学院,主校区,河北省石家庄市红旗大街428号,河北,石家庄,桥西区,38.005719,114.451497,unknown,unknown,,,,Naptie cn-university-geocoder + DaoSword China-Education-Data + ZsTs119/pg7go Baidu POI 数据集,https://github.com/Naptie/cn-university-geocoder,2026-04-21,high,百度 POI 精确匹配，坐标偏差约 1.35 km。
4113013415,河北医科大学临床学院,主校区,河北省石家庄市建华南大街309号,河北,石家庄,,38.016189,114.542729,unknown,unknown,,,,Naptie cn-university-geocoder + DaoSword China-Education-Data,https://github.com/Naptie/cn-university-geocoder,2026-04-21,medium,辅源：https://github.com/jtchen2k/hcu、https://daxue.cgsop.com/ 可用于后续人工校验校区沿革与本科去向。
4113013578,河北工程大学科信学院,主校区,河北省邯郸市光明南大街199号,河北,邯郸,,36.571679,114.502826,unknown,unknown,,,,Naptie cn-university-geocoder + DaoSword China-Education-Data,https://github.com/Naptie/cn-university-geocoder,2026-04-21,medium,辅源：https://github.com/jtchen2k/hcu、https://daxue.cgsop.com/ 可用于后续人工校验校区沿革与本科去向。
4113013592,燕山大学里仁学院,主校区,河北省秦皇岛市河北大街438号,河北,秦皇岛,,39.904939,119.521118,unknown,unknown,,,,Naptie cn-university-geocoder + DaoSword China-Education-Data,https://github.com/Naptie/cn-university-geocoder,2026-04-21,medium,辅源：https://github.com/jtchen2k/hcu、https://daxue.cgsop.com/ 可用于后续人工校验校区沿革与本科去向。
4113013593,石家庄铁道大学四方学院,主校区,河北省石家庄市装院路甲一号,河北,石家庄,,38.052155,114.347347,unknown,unknown,,,,Naptie cn-university-geocoder + DaoSword China-Education-Data,https://github.com/Naptie/cn-university-geocoder,2026-04-21,medium,辅源：https://github.com/jtchen2k/hcu、https://daxue.cgsop.com/ 可用于后续人工校验校区沿革与本科去向。
4113013594,河北地质大学华信学院,主校区,河北省石家庄市空港工业园区北环港路69号,河北,石家庄,空港工业园区,37.993645,114.449851,unknown,unknown,,,,Naptie cn-university-geocoder + DaoSword China-Education-Data,https://github.com/Naptie/cn-university-geocoder,2026-04-21,medium,辅源：https://github.com/jtchen2k/hcu、https://daxue.cgsop.com/ 可用于后续人工校验校区沿革与本科去向。
4113013595,河北农业大学现代科技学院,主校区,河北省保定市乐凯南大街2596号,河北,保定,,38.827415,115.443682,unknown,unknown,,,,Naptie cn-university-geocoder + DaoSword China-Education-Data,https://github.com/Naptie/cn-university-geocoder,2026-04-21,medium,辅源：https://github.com/jtchen2k/hcu、https://daxue.cgsop.com/ 可用于后续人工校验校区沿革与本科去向。
4113013596,华北理工大学冀唐学院,主校区,河北省唐山市曹妃甸区唐山湾生态城渤海大道21号,河北,唐山,唐山市曹妃甸区,39.581373,118.084726,unknown,unknown,,,,Naptie cn-university-geocoder + DaoSword China-Education-Data,https://github.com/Naptie/cn-university-geocoder,2026-04-21,medium,辅源：https://github.com/jtchen2k/hcu、https://daxue.cgsop.com/ 可用于后续人工校验校区沿革与本科去向。
4113013690,河北司法警官职业学院,石家庄校区,河北省石家庄市工农路587号,河北,邯郸,,38.031901,114.44658,unknown,unknown,,,,Naptie cn-university-geocoder + DaoSword China-Education-Data,https://github.com/Naptie/cn-university-geocoder,2026-04-21,high,校区地址与 DaoSword 宽表中的标注校区名一致。
4113013690,河北司法警官职业学院,校本部,河北省邯郸市中华北大街515号,河北,邯郸,,,,unknown,unknown,,,,DaoSword China-Education-Data,https://github.com/DaoSword/China-Education-Data,2026-04-21,low,此校区由 DaoSword 宽表中的标注校址补入；未在 geocoder 主结果中出现，建议后续以学校校区介绍页复核。
4113013690,河北司法警官职业学院,学院本部,邯郸市丛台区中华北大街515号,河北,邯郸,丛台区,36.647551,114.489345,unknown,unknown,,,,Naptie cn-university-geocoder + ZsTs119/pg7go Baidu POI 数据集,https://github.com/Naptie/cn-university-geocoder,2026-04-21,medium,百度 POI 近似匹配，坐标偏差约 0.97 km。
4113013779,沧州医学高等专科学校,主校区,河北省沧州市运河区九河西路,河北,沧州,运河区,38.284176,116.797728,unknown,unknown,,,,Naptie cn-university-geocoder + DaoSword China-Education-Data + ZsTs119/pg7go Baidu POI 数据集,https://github.com/Naptie/cn-university-geocoder,2026-04-21,high,百度 POI 精确匹配，坐标偏差约 1.30 km。
4113013822,河北女子职业技术学院,花都校区,河北省石家庄市红旗大街337号,河北,石家庄,石家庄市红旗,38.013113,114.459702,unknown,unknown,,,,Naptie cn-university-geocoder + DaoSword China-Education-Data,https://github.com/Naptie/cn-university-geocoder,2026-04-21,high,校区地址与 DaoSword 宽表中的标注校区名一致。
4113013822,河北女子职业技术学院,秦皇岛校区,河北省秦皇岛市北戴河区银涛路12号,河北,石家庄,秦皇岛市北戴河区,39.85017,119.516994,unknown,unknown,,,,Naptie cn-university-geocoder + DaoSword China-Education-Data,https://github.com/Naptie/cn-university-geocoder,2026-04-21,high,校区地址与 DaoSword 宽表中的标注校区名一致。
4113013822,河北女子职业技术学院,主校区,河北省石家庄市西南高教区南二环汇文街16号,河北,石家庄,桥西区,37.998268,114.44943,unknown,unknown,,,,Naptie cn-university-geocoder + DaoSword China-Education-Data + ZsTs119/pg7go Baidu POI 数据集,https://github.com/Naptie/cn-university-geocoder,2026-04-21,high,校区地址与 DaoSword 宽表中的标注校区名一致。 百度 POI 精确匹配，坐标偏差约 0.84 km。
4113013891,保定理工学院,主校区,河北省保定市南二环路1689号,河北,保定,莲池区,38.814721,115.478962,unknown,unknown,,,,Naptie cn-university-geocoder + DaoSword China-Education-Data + ZsTs119/pg7go Baidu POI 数据集,https://github.com/Naptie/cn-university-geocoder,2026-04-21,high,百度 POI 精确匹配，坐标偏差约 1.33 km。
4113013895,燕京理工学院,主校区,河北省廊坊市三河市燕郊经济开发区迎宾路808号,河北,廊坊,三河市,39.999225,116.798349,unknown,unknown,,,,Naptie cn-university-geocoder + DaoSword China-Education-Data + ZsTs119/pg7go Baidu POI 数据集,https://github.com/Naptie/cn-university-geocoder,2026-04-21,high,百度 POI 精确匹配，坐标偏差约 1.33 km。
4113013899,北京中医药大学东方学院,渤海校区,河北省沧州市渤海新区中捷产业园区渤海3号路东段,河北,廊坊,沧州市渤海新区,38.382883,117.443321,unknown,unknown,,,,Naptie cn-university-geocoder + DaoSword China-Education-Data,https://github.com/Naptie/cn-university-geocoder,2026-04-21,high,校区地址与 DaoSword 宽表中的标注校区名一致。
4113013899,北京中医药大学东方学院,廊坊校区,河北省廊坊市东方大学城教学南区,河北,廊坊,东方大学城教学南区,39.60208,116.755147,unknown,unknown,,,,Naptie cn-university-geocoder + DaoSword China-Education-Data,https://github.com/Naptie/cn-university-geocoder,2026-04-21,high,校区地址与 DaoSword 宽表中的标注校区名一致。
4113014018,石家庄医学高等专科学校,主校区,河北省石家庄市灵寿县同新路1号,河北,石家庄,灵寿县,38.261278,114.4116,unknown,unknown,,,,Naptie cn-university-geocoder + DaoSword China-Education-Data + ZsTs119/pg7go Baidu POI 数据集,https://github.com/Naptie/cn-university-geocoder,2026-04-21,high,百度 POI 精确匹配，坐标偏差约 1.34 km。
4113014047,石家庄经济职业学院,主校区,河北省石家庄市北郊107国道与常山西路交叉口47号,河北,石家庄,,38.059914,114.410237,unknown,unknown,,,,Naptie cn-university-geocoder + DaoSword China-Education-Data,https://github.com/Naptie/cn-university-geocoder,2026-04-21,medium,辅源：https://github.com/jtchen2k/hcu、https://daxue.cgsop.com/ 可用于后续人工校验校区沿革与本科去向。
4113014103,冀中职业学院,北校区,河北省保定市定州市北门街北口,河北,保定,,38.530818,115.00924,unknown,unknown,,,,Naptie cn-university-geocoder + DaoSword China-Education-Data,https://github.com/Naptie/cn-university-geocoder,2026-04-21,high,校区地址与 DaoSword 宽表中的标注校区名一致。
4113014103,冀中职业学院,南校区,河北省保定市定州市刀枪街3号,河北,保定,,38.516732,115.000118,unknown,unknown,,,,Naptie cn-university-geocoder + DaoSword China-Education-Data,https://github.com/Naptie/cn-university-geocoder,2026-04-21,high,校区地址与 DaoSword 宽表中的标注校区名一致。
4113014158,石家庄人民医学高等专科学校,主校区,河北省石家庄市红旗南大街汇丰西路18号,河北,石家庄,桥西区,37.992302,114.449123,unknown,unknown,,,,Naptie cn-university-geocoder + DaoSword China-Education-Data + ZsTs119/pg7go Baidu POI 数据集,https://github.com/Naptie/cn-university-geocoder,2026-04-21,high,百度 POI 精确匹配，坐标偏差约 1.35 km。
4113014185,河北正定师范高等专科学校,南校区,河北省石家庄市裕华区太行大街202号,河北,石家庄,石家庄市裕华区,,,unknown,unknown,,,,DaoSword China-Education-Data,https://github.com/DaoSword/China-Education-Data,2026-04-21,low,当前仅有聚合校址，尚未接入官方招生章程或校区说明页，暂不参与硬筛选推导。
4113014185,河北正定师范高等专科学校,校本部,河北省石家庄市正定华安西路29号,河北,石家庄,,,,unknown,unknown,,,,DaoSword China-Education-Data,https://github.com/DaoSword/China-Education-Data,2026-04-21,low,当前仅有聚合校址，尚未接入官方招生章程或校区说明页，暂不参与硬筛选推导。
4113014202,沧州交通学院,主校区,河北省黄骅市学院路2009号,河北,沧州,,38.383497,117.307574,unknown,unknown,,,,Naptie cn-university-geocoder + DaoSword China-Education-Data,https://github.com/Naptie/cn-university-geocoder,2026-04-21,medium,辅源：https://github.com/jtchen2k/hcu、https://daxue.cgsop.com/ 可用于后续人工校验校区沿革与本科去向。
4113014208,河北劳动关系职业学院,主校区,河北省石家庄市红旗南大街学院路6号,河北,石家庄,鹿泉区,37.987963,114.451472,unknown,unknown,,,,Naptie cn-university-geocoder + DaoSword China-Education-Data + ZsTs119/pg7go Baidu POI 数据集,https://github.com/Naptie/cn-university-geocoder,2026-04-21,high,百度 POI 精确匹配，坐标偏差约 1.37 km。
4113014213,石家庄科技职业学院,主校区,河北省石家庄市经济技术开发区创业路23号,河北,石家庄,藁城区,38.035828,114.686516,unknown,unknown,,,,Naptie cn-university-geocoder + DaoSword China-Education-Data + ZsTs119/pg7go Baidu POI 数据集,https://github.com/Naptie/cn-university-geocoder,2026-04-21,high,百度 POI 精确匹配，坐标偏差约 1.31 km。
4113014225,河北东方学院,主校区,河北省廊坊市经济开发区东方大学城圣陶路（凯旋门北100米）,河北,廊坊,广阳区,39.595066,116.742926,unknown,unknown,,,,Naptie cn-university-geocoder + DaoSword China-Education-Data + ZsTs119/pg7go Baidu POI 数据集,https://github.com/Naptie/cn-university-geocoder,2026-04-21,high,百度 POI 精确匹配，坐标偏差约 1.35 km。
4113014259,沧州幼儿师范高等专科学校,主校区,河北省沧州市泊头市解放西路光明街150号,河北,沧州,,,,unknown,unknown,,,,DaoSword China-Education-Data,https://github.com/DaoSword/China-Education-Data,2026-04-21,low,当前为学校级校址占位；需要后续 deep research 继续补本科生具体校区、是否大一分校和地铁距离。
4113014260,宣化科技职业学院,主校区,河北省张家口市宣化区皇城桥路77号,河北,张家口,张家口市宣化区,40.618974,115.047408,unknown,unknown,,,,Naptie cn-university-geocoder + DaoSword China-Education-Data,https://github.com/Naptie/cn-university-geocoder,2026-04-21,medium,辅源：https://github.com/jtchen2k/hcu、https://daxue.cgsop.com/ 可用于后续人工校验校区沿革与本科去向。
4113014280,廊坊燕京职业技术学院,主校区,河北省三河市河北三河经济开发区,河北,廊坊,三河市,39.967651,116.986544,unknown,unknown,,,,Naptie cn-university-geocoder + DaoSword China-Education-Data + ZsTs119/pg7go Baidu POI 数据集,https://github.com/Naptie/cn-university-geocoder,2026-04-21,high,百度 POI 精确匹配，坐标偏差约 1.35 km。
4113014281,承德护理职业学院,主校区,河北省承德市双桥区下二道河子,河北,承德,承德市双桥区,40.766671,118.167553,unknown,unknown,,,,Naptie cn-university-geocoder + DaoSword China-Education-Data,https://github.com/Naptie/cn-university-geocoder,2026-04-21,medium,辅源：https://github.com/jtchen2k/hcu、https://daxue.cgsop.com/ 可用于后续人工校验校区沿革与本科去向。
4113014328,石家庄幼儿师范高等专科学校,主校区,河北省石家庄市鹿泉开发区御园路88号,河北,石家庄,石家庄市鹿泉开发区,38.043633,114.340086,unknown,unknown,,,,Naptie cn-university-geocoder + DaoSword China-Education-Data,https://github.com/Naptie/cn-university-geocoder,2026-04-21,medium,辅源：https://github.com/jtchen2k/hcu、https://daxue.cgsop.com/ 可用于后续人工校验校区沿革与本科去向。
4113014335,廊坊卫生职业学院,主校区,河北省廊坊市经济技术开发区东方大学城四光路南,河北,廊坊,广阳区,39.607769,116.729713,unknown,unknown,,,,Naptie cn-university-geocoder + DaoSword China-Education-Data + ZsTs119/pg7go Baidu POI 数据集,https://github.com/Naptie/cn-university-geocoder,2026-04-21,high,百度 POI 精确匹配，坐标偏差约 1.34 km。
4113014432,河北中医药大学,橘泉校区,河北省石家庄市桥西区新石南路326号,河北,石家庄,石家庄市桥西区,,,unknown,unknown,,,,DaoSword China-Education-Data,https://github.com/DaoSword/China-Education-Data,2026-04-21,low,当前仅有聚合校址，尚未接入官方招生章程或校区说明页，暂不参与硬筛选推导。
4113014432,河北中医药大学,杏苑校区,河北省石家庄市鹿泉区杏苑路3号,河北,石家庄,石家庄市鹿泉区,,,unknown,unknown,,,,DaoSword China-Education-Data,https://github.com/DaoSword/China-Education-Data,2026-04-21,low,当前仅有聚合校址，尚未接入官方招生章程或校区说明页，暂不参与硬筛选推导。
4113014458,张家口学院,主校区,河北省张家口市桥西区平门大街副19号,河北,张家口,桥西区,40.841611,114.862469,unknown,unknown,,,,Naptie cn-university-geocoder + DaoSword China-Education-Data + ZsTs119/pg7go Baidu POI 数据集,https://github.com/Naptie/cn-university-geocoder,2026-04-21,high,百度 POI 精确匹配，坐标偏差约 1.34 km。
4113014460,保定幼儿师范高等专科学校,定兴校区,河北省定兴县兴华东路45号,河北,保定,定兴县,39.268537,115.810165,unknown,unknown,,,,Naptie cn-university-geocoder + DaoSword China-Education-Data + ZsTs119/pg7go Baidu POI 数据集,https://github.com/Naptie/cn-university-geocoder,2026-04-21,high,校区地址与 DaoSword 宽表中的标注校区名一致。 百度 POI 近似匹配，坐标偏差约 0.78 km。
4113014460,保定幼儿师范高等专科学校,涿州校区,河北省涿州市光明路303号,河北,保定,涿州市,39.472807,115.92499,unknown,unknown,,,,Naptie cn-university-geocoder + DaoSword China-Education-Data + ZsTs119/pg7go Baidu POI 数据集,https://github.com/Naptie/cn-university-geocoder,2026-04-21,high,校区地址与 DaoSword 宽表中的标注校区名一致。 百度 POI 近似匹配，坐标偏差约 0.96 km。
4113014471,河北工艺美术职业学院,主校区,河北省保定市瑞祥大街102号,河北,保定,满城区,38.942629,115.249577,unknown,unknown,,,,Naptie cn-university-geocoder + DaoSword China-Education-Data + ZsTs119/pg7go Baidu POI 数据集,https://github.com/Naptie/cn-university-geocoder,2026-04-21,high,百度 POI 精确匹配，坐标偏差约 1.32 km。
4113014472,渤海理工职业学院,主校区,河北省黄骅市北海路1777号,河北,沧州,黄骅市,38.392005,117.3083,unknown,unknown,,,,Naptie cn-university-geocoder + DaoSword China-Education-Data + ZsTs119/pg7go Baidu POI 数据集,https://github.com/Naptie/cn-university-geocoder,2026-04-21,high,百度 POI 精确匹配，坐标偏差约 1.33 km。
4113014586,唐山幼儿师范高等专科学校,主校区,河北省唐山市滦县滦州古城学府路3号,河北,唐山,滦州市,39.73762,118.755032,unknown,unknown,,,,Naptie cn-university-geocoder + DaoSword China-Education-Data + ZsTs119/pg7go Baidu POI 数据集,https://github.com/Naptie/cn-university-geocoder,2026-04-21,high,百度 POI 精确匹配，坐标偏差约 1.34 km。
4113014601,曹妃甸职业技术学院,主校区,河北省唐山市曹妃甸新城行知路25号曹妃甸职业技术学院,河北,唐山,曹妃甸区,39.18227,118.59473,unknown,unknown,,,,Naptie cn-university-geocoder + DaoSword China-Education-Data + ZsTs119/pg7go Baidu POI 数据集,https://github.com/Naptie/cn-university-geocoder,2026-04-21,high,百度 POI 精确匹配，坐标偏差约 1.30 km。
4113014632,承德应用技术职业学院,主校区,河北省承德市高新区冯营子镇砖瓦窑村,河北,承德,承德市高新区,40.766671,118.167553,unknown,unknown,,,,Naptie cn-university-geocoder + DaoSword China-Education-Data,https://github.com/Naptie/cn-university-geocoder,2026-04-21,medium,辅源：https://github.com/jtchen2k/hcu、https://daxue.cgsop.com/ 可用于后续人工校验校区沿革与本科去向。
4113014686,邯郸幼儿师范高等专科学校,主校区,河北省邯郸市武安市洺湖南路高教园区,河北,邯郸,洺湖南路高教园区,36.656646,114.199457,unknown,unknown,,,,Naptie cn-university-geocoder + DaoSword China-Education-Data,https://github.com/Naptie/cn-university-geocoder,2026-04-21,medium,辅源：https://github.com/jtchen2k/hcu、https://daxue.cgsop.com/ 可用于后续人工校验校区沿革与本科去向。
4113014695,邯郸科技职业学院,主校区,河北省邯郸市冀南新区滏阳路1号,河北,邯郸,邯郸市冀南新区,36.45329,114.414748,unknown,unknown,,,,Naptie cn-university-geocoder + DaoSword China-Education-Data,https://github.com/Naptie/cn-university-geocoder,2026-04-21,medium,辅源：https://github.com/jtchen2k/hcu、https://daxue.cgsop.com/ 可用于后续人工校验校区沿革与本科去向。
4113014696,唐山海运职业学院,主校区,河北省唐山市曹妃甸区曹妃甸新城行知路27号,河北,唐山,唐山市曹妃甸区,39.186136,118.589926,unknown,unknown,,,,Naptie cn-university-geocoder + DaoSword China-Education-Data,https://github.com/Naptie/cn-university-geocoder,2026-04-21,medium,辅源：https://github.com/jtchen2k/hcu、https://daxue.cgsop.com/ 可用于后续人工校验校区沿革与本科去向。
4113014742,邢台应用技术职业学院,主校区,河北省邢台市威县高新区开放东路,河北,邢台,邢台市威县,,,unknown,unknown,,,,DaoSword China-Education-Data,https://github.com/DaoSword/China-Education-Data,2026-04-21,low,当前为学校级校址占位；需要后续 deep research 继续补本科生具体校区、是否大一分校和地铁距离。
4113016202,河北石油职业技术大学,主校区,河北省承德市高新技术产业开发区学院路2号,河北,承德,高新技术产业开发区,40.89636,117.956504,unknown,unknown,,,,Naptie cn-university-geocoder + DaoSword China-Education-Data,https://github.com/Naptie/cn-university-geocoder,2026-04-21,medium,辅源：https://github.com/jtchen2k/hcu、https://daxue.cgsop.com/ 可用于后续人工校验校区沿革与本科去向。
4113016203,河北科技工程职业技术大学,主校区,河北省邢台市信都区泉南西大街473号,河北,邢台,邢台市信都区,39.146648,117.190689,unknown,unknown,,,,Naptie cn-university-geocoder + DaoSword China-Education-Data,https://github.com/Naptie/cn-university-geocoder,2026-04-21,medium,辅源：https://github.com/jtchen2k/hcu、https://daxue.cgsop.com/ 可用于后续人工校验校区沿革与本科去向。
4113016204,河北工业职业技术大学,北校区,河北省石家庄市红旗大街333号,河北,石家庄,石家庄市红旗,,,unknown,unknown,,,,DaoSword China-Education-Data,https://github.com/DaoSword/China-Education-Data,2026-04-21,low,此校区由 DaoSword 宽表中的标注校址补入；未在 geocoder 主结果中出现，建议后续以学校校区介绍页复核。
4113016204,河北工业职业技术大学,南校区,河北省石家庄市红旗大街626号,河北,石家庄,石家庄市红旗,,,unknown,unknown,,,,DaoSword China-Education-Data,https://github.com/DaoSword/China-Education-Data,2026-04-21,low,此校区由 DaoSword 宽表中的标注校址补入；未在 geocoder 主结果中出现，建议后续以学校校区介绍页复核。
4114010108,山西大学,东山校区,山西省太原市小店区南中环东街63号,山西,太原,太原市小店区,,,unknown,unknown,,,,DaoSword China-Education-Data,https://github.com/DaoSword/China-Education-Data,2026-04-21,low,此校区由 DaoSword 宽表中的标注校址补入；未在 geocoder 主结果中出现，建议后续以学校校区介绍页复核。
4114010108,山西大学,坞城校区,山西省太原市小店区坞城路92号,山西,太原,太原市小店区,37.7999,112.5885,unknown,unknown,,,,Naptie cn-university-geocoder + DaoSword China-Education-Data,https://github.com/Naptie/cn-university-geocoder,2026-04-21,high,校区地址与 DaoSword 宽表中的标注校区名一致。
4114010108,山西大学,主校区,山西省太原市小店区坞城路92号,山西,太原,小店区,37.868455,112.596087,unknown,unknown,,,,Naptie cn-university-geocoder + ZsTs119/pg7go Baidu POI 数据集,https://github.com/Naptie/cn-university-geocoder,2026-04-21,medium,百度 POI 精确匹配，坐标偏差约 6.96 km。
4114010109,太原科技大学,南校区,旧晋祠路南2段264号,山西,太原,晋源区,37.796005,112.508934,unknown,unknown,,,,Naptie cn-university-geocoder + DaoSword China-Education-Data + ZsTs119/pg7go Baidu POI 数据集,https://github.com/Naptie/cn-university-geocoder,2026-04-21,high,百度 POI 近似匹配，坐标偏差约 0.88 km。
4114010109,太原科技大学,主校区,山西省太原市万柏林区窊流路66号,山西,太原,万柏林区,37.871547,112.480872,unknown,unknown,,,,Naptie cn-university-geocoder + DaoSword China-Education-Data + ZsTs119/pg7go Baidu POI 数据集,https://github.com/Naptie/cn-university-geocoder,2026-04-21,high,百度 POI 精确匹配，坐标偏差约 1.97 km。
4114010110,中北大学,主校区,山西省太原市学院路3号,山西,太原,尖草坪区,38.014801,112.44796,unknown,unknown,,,,Naptie cn-university-geocoder + DaoSword China-Education-Data + ZsTs119/pg7go Baidu POI 数据集,https://github.com/Naptie/cn-university-geocoder,2026-04-21,high,百度 POI 精确匹配，坐标偏差约 0.88 km。
4114010112,太原理工大学,主校区,山西省太原市迎泽西大街79号,山西,太原,,37.860264,112.51558,unknown,unknown,,,,Naptie cn-university-geocoder + DaoSword China-Education-Data,https://github.com/Naptie/cn-university-geocoder,2026-04-21,medium,辅源：https://github.com/jtchen2k/hcu、https://daxue.cgsop.com/ 可用于后续人工校验校区沿革与本科去向。
4114010113,山西农业大学,太谷校区,山西省晋中市太谷区铭贤南路1号,山西,晋中,晋中市太谷区,,,unknown,unknown,,,,DaoSword China-Education-Data,https://github.com/DaoSword/China-Education-Data,2026-04-21,low,此校区由 DaoSword 宽表中的标注校址补入；未在 geocoder 主结果中出现，建议后续以学校校区介绍页复核。
4114010113,山西农业大学,太原龙城校区,山西太原小店区龙城大街81号,山西,晋中,山西太原小店区,,,unknown,unknown,,,,DaoSword China-Education-Data,https://github.com/DaoSword/China-Education-Data,2026-04-21,low,此校区由 DaoSword 宽表中的标注校址补入；未在 geocoder 主结果中出现，建议后续以学校校区介绍页复核。
4114010114,山西医科大学,川至校区,山西省太原市杏花岭区五一路382号,山西,太原,太原市杏花岭区,,,unknown,unknown,,,,DaoSword China-Education-Data,https://github.com/DaoSword/China-Education-Data,2026-04-21,low,此校区由 DaoSword 宽表中的标注校址补入；未在 geocoder 主结果中出现，建议后续以学校校区介绍页复核。
4114010114,山西医科大学,迎泽校区,山西省太原市迎泽区新建南路56号,山西,太原,迎泽区,37.850252,112.554683,unknown,unknown,,,,Naptie cn-university-geocoder + DaoSword China-Education-Data + ZsTs119/pg7go Baidu POI 数据集,https://github.com/Naptie/cn-university-geocoder,2026-04-21,high,校区地址与 DaoSword 宽表中的标注校区名一致。 百度 POI 近似匹配，坐标偏差约 0.87 km。
4114010114,山西医科大学,中都校区,山西省晋中市榆次区大学街98号,山西,晋中,榆次区,37.742629,112.742307,unknown,unknown,,,,Naptie cn-university-geocoder + DaoSword China-Education-Data + ZsTs119/pg7go Baidu POI 数据集,https://github.com/Naptie/cn-university-geocoder,2026-04-21,high,校区地址与 DaoSword 宽表中的标注校区名一致。 百度 POI 近似匹配，坐标偏差约 0.77 km。
4114010117,长治医学院,北校区,山西省长治市解放东街161号,山西,长治,,36.17155506287033,113.11946067990112,unknown,unknown,,,,Naptie cn-university-geocoder + DaoSword China-Education-Data,https://github.com/Naptie/cn-university-geocoder,2026-04-21,medium,暂仅保留单校址占位，后续需补官方校区页。
4114010118,山西师范大学,体育学院,山西省临汾市尧都区解放东路355号,山西,太原,临汾市尧都区,36.084042,111.581674,unknown,unknown,,,,Naptie cn-university-geocoder + DaoSword China-Education-Data,https://github.com/Naptie/cn-university-geocoder,2026-04-21,high,校区地址与 DaoSword 宽表中的标注校区名一致。
4114010118,山西师范大学,主校区,山西省临汾市尧都区贡院街1号,山西,临汾,尧都区,36.079765,111.511356,unknown,unknown,,,,Naptie cn-university-geocoder + ZsTs119/pg7go Baidu POI 数据集,https://github.com/Naptie/cn-university-geocoder,2026-04-21,medium,百度 POI 精确匹配，坐标偏差约 0.83 km。
4114010119,太原师范学院,主校区,山西省晋中市榆次区大学街319号,山西,太原,晋中市榆次区,37.780512,112.601288,unknown,unknown,,,,Naptie cn-university-geocoder + DaoSword China-Education-Data,https://github.com/Naptie/cn-university-geocoder,2026-04-21,medium,辅源：https://github.com/jtchen2k/hcu、https://daxue.cgsop.com/ 可用于后续人工校验校区沿革与本科去向。
4114010120,山西大同大学,新平旺校区,山西省大同市云冈区（原矿区）平泉路52号,山西,大同,大同市云冈区,40.031511,113.177537,unknown,unknown,,,,Naptie cn-university-geocoder + DaoSword China-Education-Data,https://github.com/Naptie/cn-university-geocoder,2026-04-21,high,校区地址与 DaoSword 宽表中的标注校区名一致。
4114010120,山西大同大学,御东校区,山西省大同市兴云街,山西,大同,,40.093782,113.342546,unknown,unknown,,,,Naptie cn-university-geocoder + DaoSword China-Education-Data,https://github.com/Naptie/cn-university-geocoder,2026-04-21,high,校区地址与 DaoSword 宽表中的标注校区名一致。
4114010121,晋中学院,主校区,山西省晋中市榆次区文华街199号,山西,晋中,晋中市榆次区,37.74025,112.71464,unknown,unknown,,,,Naptie cn-university-geocoder + DaoSword China-Education-Data,https://github.com/Naptie/cn-university-geocoder,2026-04-21,medium,辅源：https://github.com/jtchen2k/hcu、https://daxue.cgsop.com/ 可用于后续人工校验校区沿革与本科去向。
4114010122,长治学院,北校区,山西省长治市保宁门东街73号,山西,长治,潞州区,36.208959,113.137355,unknown,unknown,,,,Naptie cn-university-geocoder + DaoSword China-Education-Data + ZsTs119/pg7go Baidu POI 数据集,https://github.com/Naptie/cn-university-geocoder,2026-04-21,high,校区地址与 DaoSword 宽表中的标注校区名一致。 百度 POI 近似匹配，坐标偏差约 1.04 km。
